sn,location_raw,latitude,longitude,PH,EC,TH,Ca,Mg,Na,K,CO3,HCO3,Cl,SO4,NO3,F,U_ppb,sample_date,NDVI,NDWI,Distance_to_Industry_km,Industrial_flag,hotspot_label,rain_actual_24h,rain_normal_24h,rain_pdn
1.0,Ariyalur Andimadam,11.3385,79.3775,7.66,560.0,100.0,32.0,5.0,74.0,12.0,0.0,195.0,21.0,62.4,43.0,0.81,1.09,2022-05-01,0.362,0.425,89.74,0,1,11.5,11.9,-3.36
2.0,Ariyalur Elaiyur,11.2333,79.3151,7.27,184.0,60.0,14.0,6.0,16.0,1.0,0.0,49.0,21.0,24.0,1.0,0.12,1.71,2022-05-01,0.766,-0.009,76.75,0,0,17.3,5.6,208.93
3.0,Ariyalur G.K.cholapuram,11.2066,79.4492,7.44,711.0,160.0,22.0,26.0,81.0,13.0,0.0,189.0,85.0,41.28,40.0,0.68,3.74,2022-05-01,0.612,0.431,79.17,0,1,19.6,24.2,-19.01
4.0,Ariyalur Gangaikondachozhapuram EW,11.208,79.4475,7.12,1521.0,560.0,108.0,70.0,83.0,12.0,0.0,378.0,177.0,177.6,11.0,0.92,14.21,2022-05-01,0.519,-0.083,79.26,0,1,8.2,18.4,-55.43
5.0,Ariyalur Jayamkondan,11.2129,79.3647,7.43,668.0,155.0,36.0,16.0,78.0,12.0,0.0,256.0,67.0,24.0,14.0,0.51,5.01,2022-05-01,0.209,-0.085,77.76,0,0,16.6,23.7,-29.96
6.0,Ariyalur Kattathur,11.307,79.3496,7.54,674.0,155.0,42.0,12.0,76.0,13.0,0.0,293.0,25.0,48.0,16.0,0.67,1.96,2022-05-01,0.209,0.127,85.08,0,0,15.3,10.3,48.54
7.0,Ariyalur Keelkavarapalayam OW I,11.3476,79.3843,7.6,336.0,125.0,22.0,17.0,21.0,4.0,0.0,92.0,35.0,28.8,25.0,0.31,1.91,2022-05-01,0.141,0.242,90.98,0,1,11.5,17.2,-33.14
8.0,Ariyalur Kiharasanur,11.0114,78.9319,7.4,1296.0,210.0,68.0,10.0,193.0,10.0,0.0,122.0,223.0,67.2,198.0,0.91,22.46,2022-05-01,0.706,0.439,29.96,0,2,19.1,18.6,2.69
9.0,Ariyalur Kilpazhavur,11.0436,79.0653,7.26,1331.0,215.0,54.0,19.0,202.0,13.0,0.0,275.0,142.0,115.2,155.0,0.85,19.66,2022-05-01,0.521,0.378,42.07,0,2,4.0,11.4,-64.91
10.0,Ariyalur Kuvagam OW,11.2846,79.2818,7.4,298.0,85.0,16.0,11.0,18.0,14.0,0.0,98.0,21.0,14.4,25.0,0.21,1.23,2022-05-01,0.596,0.212,77.98,0,1,2.2,22.0,-90.0
11.0,Ariyalur Mahimapuram EW,11.2346,79.3701,7.3,436.0,130.0,34.0,11.0,30.0,14.0,0.0,122.0,35.0,52.8,7.0,0.52,12.33,2022-05-01,0.114,0.092,80.23,0,0,17.1,23.9,-28.45
12.0,Ariyalur Oliyur EW,11.3979,79.3186,6.79,965.0,315.0,24.0,62.0,69.0,16.0,0.0,226.0,89.0,96.0,69.0,0.63,3.05,2022-05-01,0.779,0.598,86.38,0,2,8.8,22.7,-61.23
13.0,Ariyalur Papakudi,11.2855,79.49,7.38,741.0,165.0,38.0,17.0,83.0,16.0,0.0,165.0,89.0,48.0,66.0,0.47,4.42,2022-05-01,0.683,0.198,88.86,0,2,16.9,19.8,-14.65
14.0,Ariyalur Periyathukurichi,11.4104,79.35,7.4,1013.0,250.0,42.0,35.0,101.0,36.0,0.0,244.0,124.0,96.0,56.0,0.21,12.51,2022-05-01,0.249,0.216,87.02,0,2,17.9,10.5,70.48
15.0,Ariyalur Thandalai (kallathur),11.2576,79.3754,7.59,216.0,80.0,22.0,6.0,9.0,2.0,0.0,73.0,7.0,7.2,31.0,0.11,5.77,2022-05-01,0.227,0.015,82.85,0,1,1.2,10.6,-88.68
16.0,Ariyalur V.Ramanapuram OW,11.1754,79.1096,7.3,542.0,200.0,28.0,32.0,28.0,9.0,0.0,153.0,71.0,14.4,43.0,1.58,9.93,2022-05-01,0.228,0.456,55.61,0,2,17.7,24.3,-27.16
17.0,Chennai ADAYAR,13.0089,80.2627,7.51,19600.0,2400.0,240.0,440.0,3800.0,130.0,0.0,352.0,6877.0,960.0,1.0,0.84,0.54,2022-05-01,0.313,0.386,39.15,0,2,9.0,5.2,73.08
18.0,Chennai Adayar dw,13.0192,80.2678,6.78,1262.0,280.0,40.0,44.0,140.0,31.0,0.0,336.0,170.0,100.0,2.0,0.47,0.74,2022-05-01,0.467,0.055,39.91,0,0,10.2,19.3,-47.15
19.0,Chennai Alwarpet,13.025,80.2583,7.33,1580.0,350.0,56.0,51.0,175.0,17.0,0.0,293.0,238.0,180.0,1.0,0.11,0.74,2022-05-01,0.402,-0.042,39.01,0,1,12.5,19.1,-34.55
20.0,Chennai Aminjikarai,13.0667,80.2278,7.5,1062.0,145.0,40.0,11.0,155.0,30.0,0.0,287.0,138.0,66.0,7.0,0.4,0.34,2022-05-01,0.304,0.376,37.06,0,0,18.5,17.5,5.71
21.0,Chennai BEASANT NAGAR,12.9985,80.2645,7.35,1062.0,280.0,84.0,17.0,68.0,16.0,0.0,310.0,121.0,35.0,6.0,0.69,0.3,2022-05-01,0.528,0.358,39.17,0,0,0.4,24.8,-98.39
22.0,Chennai Besant Nagar,13.0014,80.27,7.28,685.0,225.0,46.0,27.0,36.0,24.0,0.0,256.0,75.0,37.0,2.0,0.35,0.51,2022-05-01,0.198,0.091,39.82,0,0,9.5,11.2,-15.18
23.0,Chennai Chepauk (A),13.0556,80.2814,7.1,1480.0,440.0,118.0,35.0,154.0,32.0,0.0,329.0,256.0,112.0,43.0,0.45,4.54,2022-05-01,0.305,0.566,39.74,0,1,13.8,11.8,16.95
24.0,Chennai Egmore,13.0747,80.2625,7.46,585.0,145.0,36.0,13.0,55.0,17.0,0.0,195.0,67.0,27.0,2.0,0.29,1.4,2022-05-01,0.356,0.006,37.48,0,0,14.5,6.6,119.7
25.0,Chennai Guindy (CLRI) pz,13.0222,80.225,7.38,700.0,200.0,56.0,15.0,59.0,15.0,0.0,171.0,121.0,18.0,5.0,0.75,1.63,2022-05-01,0.419,0.203,35.33,0,0,13.9,13.9,0.0
26.0,Chennai K.K.Nagar,13.0417,80.2083,7.13,735.0,265.0,72.0,21.0,51.0,18.0,0.0,281.0,82.0,64.0,2.0,0.66,2.17,2022-05-01,0.65,0.561,34.11,0,0,2.7,10.2,-73.53
27.0,Chennai Kottivakkam,12.9669,80.2603,7.58,1300.0,345.0,60.0,47.0,136.0,27.0,0.0,390.0,188.0,130.0,0.0,0.23,1.73,2022-05-01,0.24,0.194,38.39,0,0,6.0,11.9,-49.58
28.0,Chennai Pallavaram pz,12.9728,80.1544,7.24,690.0,240.0,56.0,24.0,26.0,15.0,0.0,159.0,121.0,12.0,3.0,0.96,4.81,2022-05-01,0.46,0.347,26.7,0,0,7.2,21.7,-66.82
29.0,Chennai Taramani (NITTR PZ),12.9867,80.2497,7.18,655.0,140.0,16.0,24.0,96.0,16.0,0.0,268.0,114.0,10.0,3.0,0.42,1.73,2022-05-01,0.515,0.178,37.38,0,0,16.1,23.7,-32.07
30.0,Chennai Tirumangalam,13.0833,80.1875,7.1,5740.0,1025.0,172.0,145.0,687.0,17.0,0.0,378.0,1335.0,386.0,3.0,0.17,36.51,2022-05-01,0.133,0.092,33.66,0,2,5.6,8.7,-35.63
31.0,Chennai Tondiarpet,13.1167,80.275,7.3,1422.0,375.0,92.0,35.0,144.0,33.0,0.0,329.0,206.0,150.0,24.0,0.35,2.69,2022-05-01,0.525,0.589,32.92,0,1,4.2,12.5,-66.4
32.0,Chennai Vallalar Nagar,13.1056,80.2814,7.36,555.0,140.0,30.0,16.0,59.0,18.0,0.0,189.0,85.0,27.0,0.0,0.27,2.39,2022-05-01,0.219,0.187,34.22,0,0,19.1,23.6,-19.07
33.0,Chennai Vepery,13.0833,80.2708,7.41,2600.0,430.0,34.0,84.0,401.0,46.0,0.0,519.0,199.0,434.0,142.0,0.36,2.45,2022-05-01,0.146,0.526,36.58,0,2,0.2,6.2,-96.77
34.0,Chennai WASAHERMENPET,13.117,80.2852,7.91,267.0,70.0,12.0,10.0,22.0,8.0,0.0,121.0,14.0,2.0,1.0,0.33,0.56,2022-05-01,0.764,0.061,33.01,0,0,20.0,6.8,194.12
35.0,Coimbatore Alandurai pz,10.9625,76.8008,7.39,632.0,230.0,36.0,34.0,38.0,16.0,0.0,165.0,71.0,87.0,18.0,0.59,0.77,2022-05-01,0.776,0.049,12.76,0,0,13.5,8.3,62.65
36.0,Coimbatore Ambarampalayam,10.6353,76.9411,7.1,768.0,360.0,80.0,39.0,19.0,13.0,0.0,250.0,78.0,65.0,6.0,0.6,0.49,2022-05-01,0.666,-0.078,38.31,0,0,16.6,16.9,-1.78
37.0,Coimbatore AnaimalaiPZ,10.5097,77.0594,6.94,975.0,420.0,80.0,54.0,41.0,5.0,0.0,262.0,142.0,62.0,36.0,1.23,0.45,2022-05-01,0.313,0.356,54.56,0,1,5.9,8.0,-26.25
38.0,Coimbatore Andipalayam,11.005,77.4039,7.69,452.0,190.0,16.0,36.0,15.0,3.0,0.0,128.0,85.0,12.0,5.0,0.18,0.44,2022-05-01,0.168,0.158,13.83,0,0,0.3,24.4,-98.77
39.0,Coimbatore Angalakurichi,10.525,76.9994,7.4,1660.0,410.0,100.0,39.0,190.0,25.0,0.0,586.0,199.0,92.0,28.0,1.62,2.01,2022-05-01,0.579,0.505,51.31,0,2,14.8,13.9,6.47
40.0,Coimbatore Annur1,11.2333,77.1083,7.36,2580.0,760.0,128.0,107.0,198.0,21.0,0.0,488.0,305.0,298.0,178.0,0.43,5.58,2022-05-01,0.408,0.231,17.36,0,2,16.7,15.0,11.33
41.0,Coimbatore Chinnaripalayam,10.7292,77.0917,7.24,3100.0,800.0,208.0,68.0,241.0,72.0,0.0,470.0,575.0,182.0,162.0,0.57,0.51,2022-05-01,0.185,0.578,34.03,0,2,14.8,9.9,49.49
42.0,Coimbatore Coimbatore Taluk Office,11.0017,76.9711,7.27,1461.0,450.0,92.0,54.0,132.0,29.0,0.0,458.0,192.0,90.0,57.0,0.77,3.64,2022-05-01,0.447,0.03,6.75,0,2,2.9,14.4,-79.86
43.0,Coimbatore Corporation North Zone pz,11.0161,76.9772,6.9,275.0,130.0,24.0,17.0,4.0,14.0,0.0,67.0,53.0,21.0,1.0,0.34,0.0,2022-05-01,0.124,0.508,8.07,0,0,15.1,18.2,-17.03
44.0,Coimbatore Cwc Campus pz,11.0414,77.0006,7.41,2490.0,430.0,64.0,66.0,389.0,19.0,0.0,470.0,121.0,675.0,8.0,1.57,17.34,2022-05-01,0.737,0.444,11.78,0,2,15.4,20.0,-23.0
45.0,Coimbatore Devanur Pudur pz,10.5542,77.0856,7.36,1486.0,300.0,80.0,24.0,125.0,97.0,0.0,384.0,220.0,65.0,0.0,1.17,0.91,2022-05-01,0.281,0.44,50.87,0,1,13.2,20.1,-34.33
46.0,Coimbatore Ganesapuram,11.1758,77.0575,7.48,1786.0,530.0,124.0,54.0,133.0,16.0,0.0,470.0,284.0,47.0,76.0,0.16,13.62,2022-05-01,0.564,0.491,25.64,0,2,15.3,16.6,-7.83
47.0,Coimbatore Ganganaickenpalayam pz,11.1092,77.4356,7.18,4640.0,1380.0,240.0,190.0,178.0,17.0,0.0,366.0,937.0,180.0,41.0,0.35,4.53,2022-05-01,0.318,0.433,18.05,0,2,16.9,23.1,-26.84
48.0,Coimbatore Ghs Ganapathi pz,11.0419,76.9419,6.8,287.0,140.0,24.0,19.0,8.0,14.0,0.0,116.0,36.0,18.0,2.0,0.37,0.0,2022-05-01,0.464,0.338,7.58,0,0,12.3,21.3,-42.25
49.0,Coimbatore Gopalapuaram,10.6958,76.9375,7.28,1324.0,520.0,120.0,54.0,79.0,19.0,0.0,378.0,213.0,91.0,23.0,0.88,2.15,2022-05-01,0.483,-0.008,31.58,0,1,1.8,20.1,-91.04
50.0,Coimbatore Kallampalayam pz,11.03,77.2833,7.51,3070.0,640.0,88.0,102.0,352.0,17.0,0.0,451.0,462.0,263.0,227.0,1.48,2.53,2022-05-01,0.229,-0.077,1.74,1,2,9.8,6.1,60.66
51.0,Coimbatore Kaltanpet (Karanampettai),11.0167,77.1847,7.46,1088.0,470.0,116.0,44.0,46.0,7.0,0.0,311.0,156.0,92.0,2.0,0.52,2.0,2022-05-01,0.779,0.545,11.69,0,0,1.6,5.1,-68.63
52.0,Coimbatore Kaniyampoondi pz,11.1289,77.2833,7.38,1632.0,530.0,112.0,61.0,109.0,8.0,0.0,464.0,277.0,52.0,15.0,0.78,2.43,2022-05-01,0.643,0.332,9.27,0,1,8.2,9.2,-10.87
53.0,Coimbatore Kattampatty pz,10.8053,77.1425,7.26,1689.0,600.0,160.0,49.0,101.0,23.0,0.0,323.0,206.0,153.0,199.0,0.96,3.32,2022-05-01,0.758,0.458,31.05,0,2,8.1,18.3,-55.74
54.0,Coimbatore Kinathukadavu,10.7333,77.0292,7.31,1671.0,570.0,140.0,54.0,114.0,42.0,0.0,378.0,227.0,174.0,70.0,0.68,2.69,2022-05-01,0.726,0.237,30.14,0,2,1.3,13.2,-90.15
55.0,Coimbatore Kovilvazhi IV,11.0583,77.3889,7.2,1743.0,530.0,68.0,88.0,140.0,16.0,0.0,427.0,234.0,126.0,116.0,0.7,6.92,2022-05-01,0.519,-0.018,11.51,0,2,7.0,13.0,-46.15
56.0,Coimbatore Kuniyamuthur,10.9667,76.9167,7.22,1270.0,460.0,112.0,44.0,83.0,21.0,0.0,305.0,199.0,76.0,104.0,0.48,2.06,2022-05-01,0.745,-0.012,1.43,1,2,2.2,22.7,-90.31
57.0,Coimbatore Kunnakalpalayam pz,11.0456,77.3272,7.44,7430.0,1280.0,272.0,146.0,1059.0,14.0,0.0,549.0,1406.0,1188.0,98.0,1.54,5.46,2022-05-01,0.162,0.38,4.57,1,2,16.2,22.9,-29.26
58.0,Coimbatore Madukkarai -PZ,10.9083,76.9667,7.54,1363.0,430.0,120.0,32.0,117.0,20.0,0.0,323.0,178.0,165.0,93.0,1.0,2.4,2022-05-01,0.237,0.201,9.79,0,2,19.0,23.2,-18.1
59.0,Coimbatore Mettupalayam pz,11.3,76.9472,7.4,1169.0,470.0,84.0,63.0,82.0,5.0,0.0,390.0,128.0,101.0,21.0,0.57,0.68,2022-05-01,0.132,0.04,32.66,0,1,1.4,11.3,-87.61
60.0,Coimbatore Oothukadu,11.1119,77.3344,7.4,2930.0,860.0,164.0,109.0,201.0,25.0,0.0,348.0,589.0,263.0,38.0,0.28,3.57,2022-05-01,0.328,0.244,9.13,0,1,19.1,18.8,1.6
61.0,Coimbatore P.N.palayam,11.2069,76.9922,7.46,2270.0,610.0,112.0,80.0,222.0,38.0,0.0,586.0,284.0,161.0,137.0,1.25,8.71,2022-05-01,0.372,-0.055,26.69,0,2,10.5,10.4,0.96
62.0,Coimbatore Pallapalayam pz,10.5256,77.2181,7.2,1746.0,650.0,212.0,29.0,96.0,6.0,0.0,293.0,170.0,298.0,23.0,1.57,12.57,2022-05-01,0.29,0.307,58.19,0,2,6.0,8.8,-31.82
63.0,Coimbatore Periya Negamam pz,10.7403,77.1014,7.28,2330.0,780.0,188.0,75.0,145.0,23.0,0.0,311.0,383.0,147.0,213.0,0.9,4.78,2022-05-01,0.68,0.088,33.68,0,2,1.5,8.7,-82.76
64.0,Coimbatore Pichanur,10.875,76.9,7.18,314.0,140.0,24.0,19.0,7.0,14.0,0.0,49.0,36.0,87.0,2.0,0.14,0.0,2022-05-01,0.35,0.458,11.7,0,0,10.0,11.8,-15.25
65.0,Coimbatore Pillaimpalayam pz,11.1914,77.09,7.45,2720.0,660.0,112.0,92.0,270.0,20.0,0.0,549.0,454.0,230.0,41.0,0.52,4.59,2022-05-01,0.297,0.117,21.74,0,1,15.9,13.6,16.91
66.0,Coimbatore Podanur1,10.9667,76.9833,7.35,2400.0,730.0,164.0,78.0,212.0,32.0,0.0,531.0,433.0,79.0,86.0,0.6,5.72,2022-05-01,0.48,0.219,7.76,0,2,14.1,21.6,-34.72
67.0,Coimbatore Pollachi1,10.6611,77.0,7.4,1237.0,420.0,92.0,46.0,87.0,37.0,0.0,409.0,192.0,84.0,4.0,1.04,0.74,2022-05-01,0.199,-0.092,36.58,0,1,1.0,7.4,-86.49
68.0,Coimbatore Ponnaiyur,10.675,76.9375,7.36,960.0,360.0,68.0,46.0,55.0,17.0,0.0,281.0,149.0,63.0,41.0,0.87,0.2,2022-05-01,0.662,-0.049,33.88,0,1,1.5,19.7,-92.39
69.0,Coimbatore Samathur Hss pz,10.6022,77.0089,7.28,2750.0,810.0,200.0,75.0,217.0,32.0,0.0,549.0,554.0,93.0,5.0,1.58,5.88,2022-05-01,0.152,0.175,43.16,0,2,8.1,15.6,-48.08
70.0,Coimbatore Saravanampatti,11.0694,77.0014,6.88,332.0,150.0,40.0,12.0,5.0,14.0,0.0,92.0,71.0,11.0,1.0,0.15,0.0,2022-05-01,0.791,0.236,13.89,0,0,5.9,10.8,-45.37
71.0,Coimbatore Sarkar samakulam pz,11.1333,77.0333,7.29,2350.0,850.0,132.0,126.0,161.0,35.0,0.0,580.0,355.0,152.0,104.0,1.55,9.4,2022-05-01,0.641,0.32,21.58,0,2,4.6,14.9,-69.13
72.0,Coimbatore Seeliyur,11.1792,76.7583,7.7,1352.0,460.0,100.0,51.0,93.0,23.0,0.0,256.0,170.0,242.0,10.0,1.22,5.14,2022-05-01,0.239,0.104,22.39,0,1,5.6,11.0,-49.09
73.0,Coimbatore Singanallur,10.9964,77.0208,7.28,2510.0,560.0,80.0,88.0,307.0,14.0,0.0,897.0,327.0,93.0,15.0,0.77,1.74,2022-05-01,0.104,0.386,11.95,0,1,16.1,16.9,-4.73
74.0,Coimbatore Sokkanur,10.8083,76.9583,7.44,1323.0,340.0,76.0,36.0,85.0,116.0,0.0,323.0,170.0,173.0,36.0,0.89,0.65,2022-05-01,0.671,0.502,19.6,0,1,18.6,13.7,35.77
75.0,Coimbatore Sulur,11.025,77.125,7.3,2870.0,800.0,192.0,78.0,259.0,17.0,0.0,567.0,483.0,173.0,3.0,0.57,8.98,2022-05-01,0.595,0.446,18.02,0,1,8.1,8.3,-2.41
76.0,Coimbatore Telungupalayam pz,10.9833,76.9228,7.35,1450.0,510.0,108.0,58.0,102.0,21.0,0.0,500.0,213.0,71.0,11.0,0.64,7.47,2022-05-01,0.61,-0.072,1.02,1,0,18.1,7.3,147.95
77.0,Coimbatore Thathanur Aanaikalpalayam pz,11.3067,77.2789,7.4,783.0,290.0,64.0,32.0,36.0,17.0,0.0,275.0,85.0,41.0,11.0,0.46,9.87,2022-05-01,0.64,0.236,4.34,1,0,6.4,15.9,-59.75
78.0,Coimbatore Thivansapudur,10.6283,76.8753,7.46,1128.0,440.0,88.0,54.0,59.0,18.0,0.0,336.0,192.0,74.0,14.0,1.1,0.48,2022-05-01,0.152,-0.027,39.21,0,1,9.5,23.0,-58.7
79.0,Coimbatore Thondamuthur,10.9833,76.8333,7.42,1886.0,540.0,120.0,58.0,160.0,19.0,0.0,439.0,284.0,141.0,83.0,1.11,6.11,2022-05-01,0.351,0.069,9.02,0,2,4.5,11.9,-62.18
80.0,Coimbatore Tn Urban Studies pz,11.0219,76.9419,7.48,1575.0,290.0,56.0,36.0,240.0,7.0,0.0,549.0,121.0,160.0,6.0,1.7,13.12,2022-05-01,0.181,0.591,5.61,0,2,12.8,19.7,-35.03
81.0,Coimbatore Vadavalli,11.025,76.9083,7.53,2330.0,690.0,128.0,90.0,234.0,29.0,0.0,494.0,362.0,133.0,178.0,0.68,7.13,2022-05-01,0.704,-0.0,5.11,0,2,19.6,18.2,7.69
82.0,Coimbatore Varadharajapuram Murungapatti pz,10.6797,77.2719,7.26,1155.0,460.0,120.0,39.0,53.0,5.0,0.0,299.0,156.0,102.0,3.0,0.97,1.85,2022-05-01,0.536,0.249,40.62,0,0,12.1,23.6,-48.73
83.0,Coimbatore Velampalayam,11.1447,77.3094,7.4,564.0,180.0,40.0,19.0,41.0,3.0,0.0,140.0,78.0,51.0,4.0,0.11,1.22,2022-05-01,0.332,0.333,11.32,0,0,7.2,21.4,-66.36
84.0,Cuddalore Abathanapuram,11.5821,79.5534,7.44,848.0,300.0,56.0,39.0,55.0,2.0,0.0,366.0,74.0,38.4,22.0,0.34,12.32,2022-05-01,0.144,0.392,68.95,0,1,13.0,16.3,-20.25
,(Kilmungiladi),11.5561,79.4578,7.45,766.0,210.0,40.0,27.0,74.0,9.0,0.0,146.0,110.0,52.8,62.0,0.9,0.08,2022-05-01,0.318,0.292,70.49,0,2,2.5,18.1,-86.19
86.0,Cuddalore Anathanampettai,11.6068,79.6351,7.38,883.0,310.0,48.0,46.0,53.0,8.0,0.0,244.0,67.0,57.6,124.0,0.4,23.54,2022-05-01,0.328,-0.093,68.74,0,2,17.8,23.0,-22.61
87.0,Cuddalore Arasadikuppam,11.6147,79.6614,7.4,1420.0,290.0,52.0,39.0,184.0,25.0,0.0,305.0,213.0,96.0,81.0,0.57,5.18,2022-05-01,0.611,0.129,68.96,0,2,10.1,13.0,-22.31
88.0,Cuddalore C.Keeranur EW,11.7625,79.5524,7.5,1165.0,380.0,124.0,17.0,94.0,14.0,0.0,275.0,177.0,91.2,37.0,0.6,35.27,2022-05-01,0.546,0.262,49.47,0,1,9.0,11.5,-21.74
89.0,Cuddalore Chidambaram New,11.3996,79.6944,7.46,1219.0,390.0,48.0,66.0,99.0,1.0,0.0,183.0,71.0,336.0,22.0,0.32,2.15,2022-05-01,0.721,-0.038,92.63,0,1,11.7,5.2,125.0
,(Seshambadi),11.3919,79.7072,7.23,1000.0,320.0,52.0,46.0,81.0,5.0,0.0,214.0,89.0,144.0,62.0,1.2,0.07,2022-05-01,0.431,0.145,93.9,0,2,12.5,21.5,-41.86
91.0,Cuddalore Gandhinagar -NLC arch gate,11.6177,79.554,7.44,947.0,320.0,76.0,32.0,74.0,8.0,0.0,281.0,82.0,96.0,52.0,0.07,0.84,2022-05-01,0.184,-0.077,65.09,0,2,1.4,21.0,-93.33
,(Thirumandangudi),11.4342,79.5533,7.2,800.0,300.0,96.0,15.0,41.0,8.0,0.0,195.0,106.0,52.8,37.0,0.53,0.02,2022-05-01,0.599,-0.045,85.09,0,1,13.7,7.1,92.96
93.0,Cuddalore Iruppu ii,11.5036,79.6325,7.5,1160.0,420.0,116.0,32.0,71.0,10.0,0.0,250.0,142.0,144.0,58.0,0.62,34.46,2022-05-01,0.633,0.178,79.55,0,2,4.8,16.5,-70.91
94.0,Cuddalore Karunguli,11.5223,79.5256,7.11,611.0,200.0,64.0,10.0,34.0,25.0,0.0,73.0,106.0,72.0,31.0,0.04,3.24,2022-05-01,0.493,-0.007,74.95,0,1,14.3,14.3,0.0
95.0,Cuddalore Kattiyankuppam -I,11.6661,79.6524,7.6,725.0,235.0,76.0,11.0,64.0,5.0,0.0,275.0,67.0,50.88,31.0,1.04,3.38,2022-05-01,0.64,0.297,63.31,0,1,16.5,7.4,122.97
96.0,Cuddalore Kattumannakudi,11.2872,79.5517,7.38,1471.0,400.0,44.0,70.0,145.0,10.0,0.0,366.0,177.0,120.0,68.0,0.44,4.6,2022-05-01,0.446,0.383,91.33,0,2,16.1,24.6,-34.55
97.0,Cuddalore Kattusagai(n),11.5228,79.6534,7.5,1015.0,340.0,50.0,52.0,69.0,10.0,0.0,214.0,152.0,57.6,68.0,0.9,1.38,2022-05-01,0.466,0.46,78.22,0,2,11.1,9.3,19.35
98.0,Cuddalore Kattuvegakollai,11.6475,79.6392,7.01,946.0,320.0,72.0,34.0,60.0,10.0,0.0,305.0,92.0,24.0,68.0,0.19,0.71,2022-05-01,0.399,0.04,64.66,0,2,10.4,6.3,65.08
99.0,Cuddalore Keelpuvanikuppam,11.6013,79.7191,7.3,836.0,265.0,36.0,43.0,69.0,5.0,0.0,244.0,53.0,100.8,56.0,0.58,5.25,2022-05-01,0.118,0.017,72.94,0,2,2.9,16.9,-82.84
100.0,Cuddalore Killai,11.6161,79.8028,7.39,1215.0,365.0,36.0,67.0,113.0,5.0,0.0,378.0,177.0,57.6,6.0,0.06,0.8,2022-05-01,0.176,-0.027,68.32,0,0,15.5,19.8,-21.72
101.0,Cuddalore Kodandaramapuram,11.0667,79.7573,7.6,1815.0,410.0,36.0,78.0,230.0,10.0,0.0,214.0,312.0,268.8,20.0,0.61,3.95,2022-05-01,0.122,0.346,82.66,0,1,5.4,5.6,-3.57
102.0,Cuddalore Komaratchi,11.5514,79.8072,7.55,886.0,300.0,48.0,44.0,64.0,9.0,0.0,183.0,71.0,144.0,74.0,0.39,10.38,2022-05-01,0.545,0.395,74.53,0,2,9.9,18.2,-45.6
103.0,Cuddalore Kopuvanur,11.6156,79.1378,7.45,1396.0,405.0,40.0,74.0,122.0,14.0,0.0,360.0,199.0,48.0,68.0,0.37,10.53,2022-05-01,0.32,-0.078,59.58,0,2,5.7,15.6,-63.46
104.0,Cuddalore Kudikkadu I,11.7436,79.6403,7.6,960.0,255.0,32.0,43.0,92.0,14.0,0.0,73.0,160.0,168.0,16.0,0.22,0.19,2022-05-01,0.456,0.555,54.91,0,0,2.7,7.1,-61.97
105.0,Cuddalore Kundiamallur,11.5269,79.6517,7.36,1398.0,410.0,60.0,63.0,120.0,15.0,0.0,92.0,160.0,288.0,74.0,0.04,12.42,2022-05-01,0.735,-0.064,77.72,0,2,12.6,8.5,48.24
106.0,Cuddalore Kurinjipadi,11.5638,79.5865,7.71,165.0,55.0,16.0,4.0,12.0,0.0,0.0,37.0,18.0,10.08,19.0,0.78,4.85,2022-05-01,0.275,0.279,71.75,0,0,1.1,16.4,-93.29
107.0,Cuddalore Maa Podaiyur,12.2581,80.2275,7.9,1104.0,310.0,88.0,22.0,99.0,24.0,0.0,415.0,57.0,105.6,31.0,1.33,20.91,2022-05-01,0.387,0.396,18.57,0,1,15.0,10.9,37.61
108.0,Cuddalore Mangalur,11.6194,79.5586,7.7,900.0,245.0,48.0,30.0,92.0,10.0,0.0,403.0,7.0,100.8,19.0,0.86,0.76,2022-05-01,0.629,0.51,65.02,0,0,6.4,23.8,-73.11
109.0,Cuddalore Manjakuppam,11.7644,79.7647,7.3,660.0,215.0,60.0,16.0,46.0,4.0,0.0,153.0,74.0,57.6,51.0,1.47,0.32,2022-05-01,0.26,0.4,56.96,0,2,0.0,21.4,-100.0
110.0,Cuddalore Marungur -I,11.4931,79.6015,7.6,860.0,245.0,36.0,38.0,74.0,10.0,0.0,73.0,78.0,220.8,14.0,0.33,5.25,2022-05-01,0.154,0.461,79.76,0,0,10.2,24.7,-58.7
111.0,Cuddalore Maruthur -II,11.7759,79.6733,7.8,775.0,215.0,36.0,30.0,69.0,14.0,0.0,262.0,71.0,62.4,11.0,0.84,4.05,2022-05-01,0.303,0.138,53.46,0,0,0.9,10.2,-91.18
112.0,Cuddalore Nadiyapattu,11.6647,79.4041,7.38,978.0,260.0,62.0,26.0,104.0,4.0,0.0,153.0,142.0,115.2,50.0,0.15,0.3,2022-05-01,0.213,0.47,58.42,0,2,5.5,24.4,-77.46
113.0,Cuddalore Nadutitu,11.6392,79.7474,7.37,128.0,50.0,14.0,4.0,7.0,0.0,0.0,24.0,11.0,14.4,16.0,0.25,0.57,2022-05-01,0.751,-0.044,69.27,0,0,14.1,13.6,3.68
114.0,Cuddalore Nellikuppam,11.5923,79.5921,7.2,493.0,150.0,50.0,6.0,48.0,8.0,0.0,183.0,60.0,19.2,12.0,1.15,1.16,2022-05-01,0.666,0.526,68.85,0,1,1.3,12.0,-89.17
115.0,Cuddalore Pacharapalayam -I,11.3621,79.467,7.1,906.0,295.0,46.0,44.0,69.0,8.0,0.0,159.0,174.0,48.0,37.0,0.37,0.61,2022-05-01,0.543,0.283,92.05,0,1,16.8,6.0,180.0
116.0,Cuddalore Palayamkottai EW,11.4161,79.5722,7.5,1790.0,455.0,82.0,61.0,184.0,24.0,0.0,342.0,262.0,168.0,74.0,0.93,1.1,2022-05-01,0.71,0.472,87.43,0,2,0.1,6.1,-98.36
117.0,Cuddalore Parudur -I,11.5416,79.5777,7.7,1075.0,335.0,64.0,43.0,83.0,20.0,0.0,336.0,113.0,86.4,25.0,0.52,1.19,2022-05-01,0.663,0.217,73.91,0,1,4.9,18.8,-73.94
118.0,Cuddalore Pathirikuppam OW,12.2581,80.2275,7.5,317.0,105.0,40.0,1.0,21.0,5.0,0.0,67.0,43.0,24.0,25.0,0.44,0.36,2022-05-01,0.231,0.351,18.57,0,1,14.8,14.2,4.23
119.0,Cuddalore Periyakumuthi,11.4894,79.7156,7.13,100.0,40.0,12.0,2.0,7.0,2.0,0.0,31.0,14.0,9.6,7.0,0.72,3.0,2022-05-01,0.725,0.268,84.11,0,0,6.3,9.5,-33.68
120.0,Cuddalore Poovalai,11.5138,79.6453,7.1,1000.0,225.0,60.0,18.0,120.0,12.0,0.0,445.0,35.0,52.8,37.0,0.3,2.6,2022-05-01,0.478,0.412,78.88,0,1,2.0,17.3,-88.44
121.0,Cuddalore Porto -nova,11.4891,79.7533,7.04,99.0,30.0,6.0,4.0,7.0,2.0,0.0,24.0,11.0,5.28,13.0,0.72,1.56,2022-05-01,0.665,-0.043,83.37,0,0,7.2,10.1,-28.71
122.0,Cuddalore Rajankuppam,11.6873,79.6941,7.45,747.0,240.0,42.0,33.0,69.0,10.0,0.0,183.0,106.0,48.0,31.0,0.12,1.19,2022-05-01,0.727,-0.058,63.18,0,1,5.4,16.6,-67.47
123.0,Cuddalore Ramapuram -I,11.5323,79.5967,7.4,840.0,225.0,40.0,30.0,76.0,10.0,0.0,171.0,89.0,105.6,31.0,1.15,8.48,2022-05-01,0.323,0.073,75.41,0,1,16.9,12.2,38.52
124.0,Cuddalore Reddipalayam,11.5371,79.53,7.38,2520.0,800.0,164.0,95.0,191.0,23.0,0.0,195.0,411.0,384.0,130.0,0.64,2.02,2022-05-01,0.177,0.012,73.4,0,2,6.3,21.5,-70.7
125.0,Cuddalore Reddipalayam,11.5395,79.5914,7.08,139.0,45.0,12.0,4.0,9.0,0.0,0.0,31.0,11.0,12.0,20.0,0.82,6.63,2022-05-01,0.26,0.51,74.5,0,0,15.8,21.4,-26.17
126.0,Cuddalore Sakthi Nagar OW,11.6194,79.5586,7.0,790.0,100.0,36.0,2.0,129.0,10.0,0.0,305.0,78.0,24.0,12.0,0.38,0.03,2022-05-01,0.399,0.053,65.02,0,0,17.8,14.5,22.76
127.0,Cuddalore Sathamangalam,11.5213,79.3779,6.5,155.0,45.0,12.0,4.0,14.0,2.0,0.0,43.0,18.0,12.96,7.0,0.25,1.66,2022-05-01,0.673,0.583,74.49,0,0,8.7,12.0,-27.5
128.0,Cuddalore Seerakuppam,11.5295,79.5312,6.5,207.0,60.0,16.0,5.0,18.0,2.0,0.0,49.0,32.0,10.08,7.0,0.22,1.45,2022-05-01,0.703,0.136,74.25,0,0,18.2,12.3,47.97
129.0,Cuddalore Sengalpalayam -I,11.4324,79.5422,7.53,990.0,225.0,42.0,29.0,120.0,4.0,0.0,122.0,121.0,139.2,87.0,1.02,33.61,2022-05-01,0.105,0.027,85.09,0,2,7.5,21.1,-64.45
130.0,Cuddalore Sethiathope -I,11.6928,79.61,7.52,710.0,270.0,40.0,41.0,37.0,8.0,0.0,183.0,71.0,86.4,31.0,0.78,2.71,2022-05-01,0.458,0.453,58.81,0,1,19.3,11.6,66.38
131.0,Cuddalore Silambinathanpettai - I &II,11.4052,79.3983,7.6,540.0,150.0,40.0,12.0,51.0,8.0,0.0,122.0,64.0,48.0,37.0,0.52,0.15,2022-05-01,0.392,0.361,87.23,0,1,1.8,9.2,-80.43
132.0,Cuddalore Solatharam,11.3617,79.5083,6.6,210.0,80.0,18.0,9.0,12.0,2.0,0.0,49.0,28.0,19.2,7.0,1.31,5.51,2022-05-01,0.255,0.249,92.42,0,1,13.7,6.7,104.48
133.0,Cuddalore Srimushanam,11.6177,79.7194,7.63,513.0,200.0,42.0,23.0,25.0,4.0,0.0,183.0,57.0,19.2,6.0,0.97,0.14,2022-05-01,0.184,0.289,71.33,0,0,9.9,14.3,-30.77
134.0,Cuddalore Srinivasapuram,11.5839,79.6335,7.54,801.0,300.0,80.0,24.0,46.0,4.0,0.0,244.0,96.0,28.8,50.0,1.18,8.21,2022-05-01,0.336,0.403,71.08,0,2,7.8,14.6,-46.58
135.0,Cuddalore Teerthanagiri,11.5693,79.679,7.0,1325.0,400.0,132.0,17.0,115.0,8.0,0.0,201.0,234.0,144.0,17.0,1.55,6.58,2022-05-01,0.76,0.06,74.36,0,2,12.7,21.8,-41.74
136.0,Cuddalore Tekkumellur (Therkumelur),11.5894,79.5278,7.5,1340.0,410.0,100.0,39.0,113.0,17.0,0.0,134.0,319.0,96.0,17.0,1.95,5.52,2022-05-01,0.326,0.597,67.63,0,2,14.1,9.4,50.0
137.0,Cuddalore Thaiyalkunapattinam,11.5703,79.6832,7.45,2530.0,550.0,120.0,61.0,315.0,20.0,0.0,281.0,638.0,96.0,37.0,1.53,2.24,2022-05-01,0.463,0.582,74.43,0,2,0.1,12.6,-99.21
138.0,Cuddalore Theerthangari EW,11.5604,79.5563,7.7,1050.0,275.0,64.0,28.0,104.0,16.0,0.0,207.0,135.0,86.4,74.0,1.86,1.01,2022-05-01,0.592,0.355,71.37,0,2,3.3,21.2,-84.43
139.0,Cuddalore Tholudur,11.6647,79.4041,7.6,1220.0,390.0,16.0,85.0,92.0,18.0,0.0,519.0,60.0,72.0,31.0,1.32,2.44,2022-05-01,0.355,0.04,58.42,0,1,14.3,21.5,-33.49
140.0,Cuddalore tiruchchopuram,11.6164,79.7416,7.7,325.0,120.0,36.0,7.0,18.0,2.0,0.0,67.0,28.0,10.56,68.0,1.18,0.12,2022-05-01,0.78,0.376,71.74,0,2,13.3,12.7,4.72
141.0,Cuddalore Tiruvamur OW,11.7631,79.4756,7.3,225.0,90.0,20.0,10.0,9.0,2.0,0.0,43.0,28.0,28.8,9.0,0.32,0.25,2022-05-01,0.774,-0.049,47.73,0,0,19.3,14.2,35.92
142.0,Cuddalore Vadalur EW,11.5375,79.8844,7.66,1015.0,325.0,60.0,43.0,81.0,8.0,0.0,128.0,117.0,192.0,62.0,0.64,3.07,2022-05-01,0.276,-0.079,70.83,0,2,15.2,11.1,36.94
143.0,Cuddalore Vadalur(o.w),11.5687,79.5542,7.5,360.0,155.0,48.0,9.0,7.0,14.0,0.0,98.0,57.0,12.0,19.0,1.8,37.2,2022-05-01,0.448,0.08,70.42,0,2,19.0,23.7,-19.83
144.0,Cuddalore Vanathirayapuram I,11.5177,79.3347,7.63,700.0,250.0,50.0,30.0,39.0,12.0,0.0,146.0,82.0,72.0,50.0,0.36,0.55,2022-05-01,0.311,0.224,75.39,0,2,14.1,7.4,90.54
145.0,Cuddalore Vazhisothanaipalayam,11.6916,79.7216,7.4,1420.0,360.0,44.0,61.0,152.0,14.0,0.0,561.0,82.0,96.0,37.0,0.99,2.92,2022-05-01,0.299,0.508,64.25,0,1,6.0,23.7,-74.68
146.0,Cuddalore Vegakollai,11.6758,79.5289,7.3,650.0,210.0,72.0,7.0,41.0,18.0,0.0,134.0,71.0,44.16,74.0,1.23,0.5,2022-05-01,0.126,0.409,58.21,0,2,2.1,18.7,-88.77
147.0,Cuddalore Vilathur (Budangudi) OW,11.3436,79.2205,7.5,760.0,140.0,36.0,12.0,106.0,9.0,0.0,293.0,82.0,19.2,7.0,1.12,0.05,2022-05-01,0.527,0.42,75.29,0,1,15.6,15.6,0.0
148.0,Cuddalore Vridhachalam,11.5177,79.3347,7.3,510.0,195.0,60.0,11.0,18.0,25.0,0.0,122.0,60.0,67.2,27.0,0.57,1.0,2022-05-01,0.452,0.198,75.39,0,1,12.9,5.7,126.32
149.0,Cuddalore Vridhachalam I,11.7681,79.2628,7.52,635.0,200.0,32.0,29.0,51.0,5.0,0.0,98.0,110.0,48.0,37.0,0.11,0.32,2022-05-01,0.136,0.142,50.34,0,1,1.0,14.5,-93.1
150.0,Dharmapuri A.Pallipatti,11.9403,78.4017,7.05,2970.0,790.0,204.0,68.0,296.0,64.0,0.0,525.0,497.0,207.0,199.0,0.3,0.58,2022-05-01,0.295,0.16,33.48,0,2,7.2,13.2,-45.45
151.0,Dharmapuri A.Pallipatti,11.9403,78.4017,7.05,2970.0,790.0,204.0,68.0,296.0,64.0,0.0,525.0,497.0,207.0,199.0,0.3,0.58,2022-05-01,0.736,0.591,33.48,0,2,19.1,8.2,132.93
152.0,Dharmapuri Athikarapatti,11.934,78.3909,7.73,2960.0,620.0,88.0,97.0,389.0,8.0,0.0,500.0,632.0,156.0,55.0,0.7,0.25,2022-05-01,0.268,-0.072,33.84,0,2,10.0,18.1,-44.75
153.0,Dharmapuri Athikarapatti,11.934,78.3909,7.73,2960.0,620.0,88.0,97.0,389.0,8.0,0.0,500.0,632.0,156.0,55.0,0.7,0.25,2022-05-01,0.201,0.507,33.84,0,2,8.7,24.4,-64.34
154.0,Dharmapuri Bharathipuram,12.1172,78.1531,7.31,753.0,340.0,56.0,49.0,45.0,1.0,0.0,226.0,99.0,82.0,31.0,0.33,0.23,2022-05-01,0.443,0.305,67.08,0,1,9.2,16.2,-43.21
155.0,Dharmapuri Bharathipuram,12.1172,78.1531,7.31,753.0,340.0,56.0,49.0,45.0,1.0,0.0,226.0,99.0,82.0,31.0,0.33,0.23,2022-05-01,0.79,0.207,67.08,0,1,4.2,19.3,-78.24
156.0,Dharmapuri Bommidimalapurm,12.0,78.25,7.38,1336.0,500.0,116.0,51.0,119.0,4.0,0.0,317.0,170.0,132.0,147.0,0.35,0.0,2022-05-01,0.269,0.408,50.53,0,2,7.4,6.4,15.62
157.0,Dharmapuri Bommidimalapurm,12.0,78.25,7.38,1336.0,500.0,116.0,51.0,119.0,4.0,0.0,317.0,170.0,132.0,147.0,0.35,0.0,2022-05-01,0.57,0.241,50.53,0,2,7.4,13.4,-44.78
158.0,Dharmapuri Boothanatham,11.9508,78.4688,7.57,577.0,220.0,40.0,29.0,30.0,6.0,0.0,140.0,57.0,63.0,62.0,0.97,1.69,2022-05-01,0.633,0.511,29.76,0,2,1.0,7.3,-86.3
159.0,Dharmapuri Boothanatham,11.9508,78.4688,7.57,577.0,220.0,40.0,29.0,30.0,6.0,0.0,140.0,57.0,63.0,62.0,0.97,1.69,2022-05-01,0.266,0.53,29.76,0,2,15.4,17.3,-10.98
160.0,Dharmapuri Dharmapuri2,12.1375,78.1708,7.68,2100.0,690.0,164.0,68.0,131.0,6.0,0.0,543.0,298.0,129.0,80.0,0.31,0.0,2022-05-01,0.61,0.195,67.12,0,2,8.3,23.8,-65.13
161.0,Dharmapuri Dharmapuri2,12.1375,78.1708,7.68,2100.0,690.0,164.0,68.0,131.0,6.0,0.0,543.0,298.0,129.0,80.0,0.31,0.0,2022-05-01,0.357,0.094,67.12,0,2,16.4,18.2,-9.89
162.0,Dharmapuri Echambadi dw,12.1128,78.4942,7.16,1963.0,750.0,160.0,85.0,183.0,1.0,0.0,323.0,312.0,162.0,262.0,0.74,0.4,2022-05-01,0.543,0.315,45.08,0,2,17.0,6.5,161.54
163.0,Dharmapuri Echambadi dw,12.1128,78.4942,7.16,1963.0,750.0,160.0,85.0,183.0,1.0,0.0,323.0,312.0,162.0,262.0,0.74,0.4,2022-05-01,0.543,0.539,45.08,0,2,4.2,12.1,-65.29
164.0,Dharmapuri Harur2,12.0514,78.4833,7.5,2640.0,790.0,100.0,131.0,233.0,5.0,0.0,506.0,561.0,159.0,62.0,1.08,0.0,2022-05-01,0.475,0.047,39.04,0,2,13.1,16.0,-18.13
165.0,Dharmapuri Harur2,12.0514,78.4833,7.5,2640.0,790.0,100.0,131.0,233.0,5.0,0.0,506.0,561.0,159.0,62.0,1.08,0.0,2022-05-01,0.163,0.336,39.04,0,2,9.4,13.1,-28.24
166.0,Dharmapuri Hogenakkal,12.1236,77.8083,8.15,1545.0,150.0,16.0,27.0,307.0,2.0,0.0,519.0,156.0,164.0,13.0,0.64,0.76,2022-05-01,0.685,0.342,51.79,0,1,17.6,21.7,-18.89
167.0,Dharmapuri Hogenakkal,12.1236,77.8083,8.15,1545.0,150.0,16.0,27.0,307.0,2.0,0.0,519.0,156.0,164.0,13.0,0.64,0.76,2022-05-01,0.325,0.413,51.79,0,1,4.3,21.3,-79.81
168.0,Dharmapuri Indoor,12.1333,78.0583,7.6,3300.0,1150.0,228.0,141.0,181.0,47.0,0.0,323.0,433.0,733.0,160.0,0.66,2.03,2022-05-01,0.231,-0.008,61.38,0,2,13.6,17.2,-20.93
169.0,Dharmapuri Indoor,12.1333,78.0583,7.6,3300.0,1150.0,228.0,141.0,181.0,47.0,0.0,323.0,433.0,733.0,160.0,0.66,2.03,2022-05-01,0.129,0.401,61.38,0,2,12.2,12.5,-2.4
170.0,Dharmapuri Irumattur new,12.2611,78.3019,7.74,2570.0,530.0,100.0,68.0,278.0,55.0,0.0,555.0,454.0,153.0,21.0,0.54,0.42,2022-05-01,0.514,0.536,68.83,0,1,5.9,10.1,-41.58
171.0,Dharmapuri Irumattur new,12.2611,78.3019,7.74,2570.0,530.0,100.0,68.0,278.0,55.0,0.0,555.0,454.0,153.0,21.0,0.54,0.42,2022-05-01,0.574,0.026,68.83,0,1,2.7,7.1,-61.97
172.0,Dharmapuri Karthankulam DW,12.1331,78.3197,7.43,1356.0,520.0,84.0,75.0,86.0,1.0,0.0,372.0,149.0,143.0,40.0,1.04,0.06,2022-05-01,0.112,0.066,55.8,0,1,13.0,12.1,7.44
173.0,Dharmapuri Karthankulam DW,12.1331,78.3197,7.43,1356.0,520.0,84.0,75.0,86.0,1.0,0.0,372.0,149.0,143.0,40.0,1.04,0.06,2022-05-01,0.458,0.58,55.8,0,1,14.8,13.3,11.28
174.0,Dharmapuri Kaveripattinathankottai,12.1461,78.1733,7.09,902.0,270.0,32.0,46.0,85.0,41.0,0.0,354.0,107.0,63.0,6.0,0.49,1.69,2022-05-01,0.259,0.027,67.57,0,0,6.3,18.5,-65.95
175.0,Dharmapuri Kaveripattinathankottai,12.1461,78.1733,7.09,902.0,270.0,32.0,46.0,85.0,41.0,0.0,354.0,107.0,63.0,6.0,0.49,1.69,2022-05-01,0.552,0.498,67.57,0,0,12.9,18.2,-29.12
176.0,Dharmapuri Kottapatti Pz,11.985,78.6717,7.81,1706.0,680.0,92.0,109.0,115.0,3.0,0.0,586.0,213.0,133.0,58.0,0.49,1.48,2022-05-01,0.222,0.245,29.7,0,2,7.9,6.4,23.44
177.0,Dharmapuri Kottapatti Pz,11.985,78.6717,7.81,1706.0,680.0,92.0,109.0,115.0,3.0,0.0,586.0,213.0,133.0,58.0,0.49,1.48,2022-05-01,0.584,0.073,29.7,0,2,14.3,12.9,10.85
178.0,Dharmapuri Maniyampadi,12.1246,78.2847,7.51,589.0,230.0,44.0,29.0,35.0,6.0,0.0,153.0,64.0,54.0,52.0,0.52,1.8,2022-05-01,0.371,0.51,57.41,0,2,4.0,8.6,-53.49
179.0,Dharmapuri Maniyampadi,12.1246,78.2847,7.51,589.0,230.0,44.0,29.0,35.0,6.0,0.0,153.0,64.0,54.0,52.0,0.52,1.8,2022-05-01,0.756,0.212,57.41,0,2,17.8,8.1,119.75
180.0,Dharmapuri Morappur dw,12.1247,78.3989,7.43,1976.0,680.0,84.0,114.0,182.0,4.0,0.0,433.0,369.0,153.0,76.0,1.21,0.0,2022-05-01,0.196,0.26,50.37,0,2,5.7,21.5,-73.49
181.0,Dharmapuri Morappur dw,12.1247,78.3989,7.43,1976.0,680.0,84.0,114.0,182.0,4.0,0.0,433.0,369.0,153.0,76.0,1.21,0.0,2022-05-01,0.339,0.151,50.37,0,2,7.4,5.8,27.59
182.0,Dharmapuri Mukkareddipatti,11.9667,78.4167,7.4,1730.0,660.0,80.0,112.0,129.0,1.0,0.0,439.0,284.0,109.0,61.0,1.14,0.57,2022-05-01,0.179,0.315,34.57,0,2,1.2,13.4,-91.04
183.0,Dharmapuri Mukkareddipatti,11.9667,78.4167,7.4,1730.0,660.0,80.0,112.0,129.0,1.0,0.0,439.0,284.0,109.0,61.0,1.14,0.57,2022-05-01,0.747,0.014,34.57,0,2,2.2,8.4,-73.81
184.0,Dharmapuri Mullaivanam,12.0975,78.6289,7.69,823.0,370.0,44.0,63.0,51.0,2.0,0.0,329.0,92.0,51.0,5.0,0.38,1.3,2022-05-01,0.714,0.174,41.48,0,0,10.3,22.6,-54.42
185.0,Dharmapuri Mullaivanam,12.0975,78.6289,7.69,823.0,370.0,44.0,63.0,51.0,2.0,0.0,329.0,92.0,51.0,5.0,0.38,1.3,2022-05-01,0.281,0.579,41.48,0,0,5.4,16.1,-66.46
186.0,Dharmapuri Nagadasampatti,12.1333,77.9833,7.57,2650.0,1010.0,148.0,156.0,137.0,1.0,0.0,458.0,419.0,222.0,198.0,1.04,1.65,2022-05-01,0.562,0.081,56.99,0,2,16.7,9.6,73.96
187.0,Dharmapuri Nagadasampatti,12.1333,77.9833,7.57,2650.0,1010.0,148.0,156.0,137.0,1.0,0.0,458.0,419.0,222.0,198.0,1.04,1.65,2022-05-01,0.672,0.36,56.99,0,2,0.3,15.0,-98.0
188.0,Dharmapuri Odasalapatti,12.1417,78.2917,7.4,1343.0,540.0,88.0,78.0,107.0,1.0,0.0,403.0,149.0,143.0,67.0,0.78,0.0,2022-05-01,0.489,0.128,58.42,0,2,7.6,19.6,-61.22
189.0,Dharmapuri Odasalapatti,12.1417,78.2917,7.4,1343.0,540.0,88.0,78.0,107.0,1.0,0.0,403.0,149.0,143.0,67.0,0.78,0.0,2022-05-01,0.471,0.441,58.42,0,2,6.7,24.2,-72.31
190.0,Dharmapuri Odasalapatti x road,12.1431,78.2844,7.34,1654.0,550.0,104.0,71.0,168.0,1.0,0.0,336.0,220.0,153.0,157.0,0.9,0.01,2022-05-01,0.269,-0.008,59.04,0,2,0.4,9.4,-95.74
191.0,Dharmapuri Odasalapatti x road,12.1431,78.2844,7.34,1654.0,550.0,104.0,71.0,168.0,1.0,0.0,336.0,220.0,153.0,157.0,0.9,0.01,2022-05-01,0.165,0.579,59.04,0,2,2.5,22.7,-88.99
192.0,Dharmapuri Papireddipatti1,11.9167,78.3361,7.47,1603.0,530.0,48.0,100.0,152.0,7.0,0.0,494.0,270.0,109.0,15.0,1.32,0.49,2022-05-01,0.728,0.218,37.35,0,1,8.3,23.7,-64.98
193.0,Dharmapuri Papireddipatti1,11.9167,78.3361,7.47,1603.0,530.0,48.0,100.0,152.0,7.0,0.0,494.0,270.0,109.0,15.0,1.32,0.49,2022-05-01,0.73,0.065,37.35,0,1,9.9,23.3,-57.51
194.0,Dharmapuri Pattarakaran Kottai,12.0274,77.8104,7.66,1647.0,570.0,156.0,44.0,132.0,2.0,0.0,409.0,149.0,300.0,33.0,0.99,0.19,2022-05-01,0.543,-0.049,62.4,0,1,8.1,17.7,-54.24
195.0,Dharmapuri Pattarakaran Kottai,12.0274,77.8104,7.66,1647.0,570.0,156.0,44.0,132.0,2.0,0.0,409.0,149.0,300.0,33.0,0.99,0.19,2022-05-01,0.337,0.019,62.4,0,1,10.6,17.6,-39.77
196.0,Dharmapuri Pennagaram1,12.125,77.9,7.68,754.0,320.0,40.0,54.0,36.0,2.0,0.0,195.0,92.0,124.0,8.0,0.58,1.57,2022-05-01,0.344,0.264,54.09,0,0,11.9,13.1,-9.16
197.0,Dharmapuri Pennagaram1,12.125,77.9,7.68,754.0,320.0,40.0,54.0,36.0,2.0,0.0,195.0,92.0,124.0,8.0,0.58,1.57,2022-05-01,0.608,0.136,54.09,0,0,0.2,20.0,-99.0
198.0,Dharmapuri Sillarahalli,12.0525,78.2806,7.61,3100.0,1210.0,132.0,214.0,196.0,6.0,0.0,567.0,497.0,186.0,336.0,0.71,0.5,2022-05-01,0.728,0.48,51.79,0,2,9.3,15.6,-40.38
199.0,Dharmapuri Sillarahalli,12.0525,78.2806,7.61,3100.0,1210.0,132.0,214.0,196.0,6.0,0.0,567.0,497.0,186.0,336.0,0.71,0.5,2022-05-01,0.721,0.202,51.79,0,2,19.3,18.5,4.32
200.0,Dharmapuri Sittilingiri,11.9098,78.6212,7.76,1282.0,380.0,40.0,68.0,145.0,4.0,0.0,506.0,114.0,49.0,49.0,1.04,2.32,2022-05-01,0.646,0.074,20.63,0,2,10.4,13.6,-23.53
201.0,Dharmapuri Sittilingiri,11.9098,78.6212,7.76,1282.0,380.0,40.0,68.0,145.0,4.0,0.0,506.0,114.0,49.0,49.0,1.04,2.32,2022-05-01,0.549,0.332,20.63,0,2,13.6,19.6,-30.61
202.0,Dharmapuri Thambichettipatti dw,12.1081,78.4128,7.35,583.0,210.0,44.0,24.0,36.0,1.0,0.0,171.0,57.0,63.0,24.0,0.62,2.32,2022-05-01,0.159,0.395,48.02,0,1,6.2,21.5,-71.16
203.0,Dharmapuri Thambichettipatti dw,12.1081,78.4128,7.35,583.0,210.0,44.0,24.0,36.0,1.0,0.0,171.0,57.0,63.0,24.0,0.62,2.32,2022-05-01,0.213,0.017,48.02,0,1,15.5,7.9,96.2
204.0,Dharmapuri Thirthamalai DW,12.1017,78.5892,7.37,1926.0,710.0,120.0,100.0,184.0,2.0,0.0,445.0,277.0,147.0,162.0,1.08,0.59,2022-05-01,0.729,0.017,41.98,0,2,15.5,21.7,-28.57
205.0,Dharmapuri Thirthamalai DW,12.1017,78.5892,7.37,1926.0,710.0,120.0,100.0,184.0,2.0,0.0,445.0,277.0,147.0,162.0,1.08,0.59,2022-05-01,0.525,-0.074,41.98,0,2,10.4,15.8,-34.18
206.0,Dharmapuri Thoppur (D),11.9433,78.0481,7.76,2100.0,620.0,72.0,107.0,227.0,0.0,0.0,683.0,206.0,200.0,30.0,1.23,0.9,2022-05-01,0.106,0.415,67.16,0,1,19.5,21.9,-10.96
207.0,Dharmapuri Thoppur (D),11.9433,78.0481,7.76,2100.0,620.0,72.0,107.0,227.0,0.0,0.0,683.0,206.0,200.0,30.0,1.23,0.9,2022-05-01,0.171,0.365,67.16,0,1,2.5,13.6,-81.62
208.0,Dindigul Ayyalur,10.2858,78.1002,7.21,1183.0,510.0,144.0,36.0,54.0,7.0,0.0,427.0,156.0,30.0,19.0,0.9,8.42,2022-05-01,0.564,0.232,20.17,0,0,0.3,12.6,-97.62
209.0,Dindigul Chattrapatti,10.4667,77.6583,6.88,2390.0,860.0,152.0,117.0,97.0,3.0,0.0,415.0,356.0,115.0,275.0,0.49,0.27,2022-05-01,0.104,0.491,16.95,0,2,15.4,23.3,-33.91
210.0,Dindigul Chellamantadi,10.4072,78.0025,7.3,2900.0,460.0,96.0,54.0,232.0,282.0,0.0,647.0,398.0,125.0,157.0,0.5,1.52,2022-05-01,0.213,0.464,23.78,0,2,16.1,10.0,61.0
211.0,Dindigul Chitterivu pz,10.2378,77.7708,7.21,2910.0,1100.0,144.0,180.0,152.0,2.0,0.0,500.0,441.0,135.0,289.0,1.0,1.66,2022-05-01,0.484,0.31,13.86,0,2,2.4,21.9,-89.04
212.0,Dindigul Dindigul1,10.4083,77.9667,7.34,1385.0,360.0,52.0,56.0,129.0,118.0,0.0,573.0,142.0,62.0,6.0,0.22,0.6,2022-05-01,0.584,0.508,20.18,0,0,5.3,14.7,-63.95
213.0,Dindigul Dindigul2,10.3667,77.9708,7.36,1516.0,400.0,48.0,68.0,121.0,141.0,0.0,622.0,142.0,100.0,5.0,1.2,0.71,2022-05-01,0.556,0.044,23.15,0,1,0.4,15.3,-97.39
214.0,Dindigul Gandhigram,10.2583,77.925,7.18,1070.0,310.0,52.0,44.0,117.0,9.0,0.0,317.0,149.0,60.0,10.0,0.21,1.17,2022-05-01,0.257,-0.022,22.92,0,0,5.9,11.2,-47.32
215.0,Dindigul Guzilamparai,10.6806,78.1156,7.14,1538.0,490.0,80.0,70.0,143.0,34.0,0.0,415.0,185.0,80.0,152.0,1.11,3.51,2022-05-01,0.599,0.089,35.26,0,2,15.5,16.5,-6.06
216.0,Dindigul Hanumanthanagar,10.3514,77.9944,7.46,2890.0,660.0,160.0,63.0,285.0,52.0,0.0,793.0,356.0,170.0,9.0,0.58,1.66,2022-05-01,0.266,-0.06,26.25,0,1,10.4,11.5,-9.57
217.0,Dindigul Idayapatti,10.7583,78.0333,7.21,1328.0,380.0,52.0,61.0,120.0,17.0,0.0,354.0,199.0,92.0,24.0,1.16,3.1,2022-05-01,0.328,0.272,38.3,0,1,7.0,5.8,20.69
218.0,Dindigul Kakkinapatti,10.6714,77.9922,7.24,1409.0,550.0,60.0,97.0,57.0,24.0,0.0,451.0,149.0,64.0,107.0,0.64,3.86,2022-05-01,0.623,0.556,28.16,0,2,7.4,10.4,-28.85
219.0,Dindigul Kallimandiam,10.5833,77.6944,7.36,1484.0,460.0,64.0,73.0,142.0,16.0,0.0,464.0,185.0,67.0,106.0,0.68,1.07,2022-05-01,0.555,-0.072,15.84,0,2,0.0,5.1,-100.0
220.0,Dindigul Kanakkanpatti,10.475,77.5667,7.17,3460.0,760.0,168.0,83.0,403.0,183.0,0.0,634.0,455.0,335.0,204.0,0.6,0.5,2022-05-01,0.694,-0.015,26.9,0,2,6.0,24.6,-75.61
221.0,Dindigul Kodaikanal,10.1343,77.2758,5.41,40.0,14.0,4.0,1.0,2.0,0.0,0.0,12.0,4.0,3.0,1.0,0.0,0.45,2022-05-01,0.56,0.217,29.72,0,0,12.9,24.3,-46.91
222.0,Dindigul Kovilur (Ramanathapuram),10.5917,78.0861,7.01,759.0,195.0,38.0,24.0,99.0,5.0,0.0,250.0,100.0,52.0,1.0,0.93,1.36,2022-05-01,0.498,0.554,30.34,0,0,19.5,12.9,51.16
223.0,Dindigul Kullanampatti,10.3417,77.9917,7.08,309.0,124.0,30.0,12.0,13.0,1.0,0.0,151.0,16.0,5.0,0.0,0.0,0.21,2022-05-01,0.166,0.121,26.7,0,0,16.9,19.6,-13.78
224.0,Dindigul Muthampattipalayam,10.7272,78.1392,7.13,2270.0,500.0,120.0,49.0,216.0,75.0,0.0,476.0,313.0,155.0,134.0,0.84,6.24,2022-05-01,0.357,0.255,38.29,0,2,0.5,11.9,-95.8
225.0,Dindigul Nandavanampatti,10.3756,77.9853,7.29,2470.0,620.0,120.0,78.0,284.0,17.0,0.0,647.0,384.0,112.0,13.0,2.96,2.88,2022-05-01,0.286,-0.071,23.85,0,2,18.0,18.4,-2.17
226.0,Dindigul Natham1,10.2222,78.2472,7.77,4660.0,1180.0,32.0,268.0,584.0,6.0,0.0,1074.0,754.0,340.0,361.0,1.26,49.64,2022-05-01,0.271,0.004,13.84,0,2,15.7,21.1,-25.59
227.0,Dindigul Nattam,10.2328,78.2333,7.53,3010.0,860.0,48.0,180.0,275.0,4.0,0.0,683.0,469.0,180.0,233.0,0.74,21.77,2022-05-01,0.781,0.591,14.05,0,2,15.6,23.9,-34.73
228.0,Dindigul Oddanchatram1,10.4908,77.7528,7.11,2590.0,840.0,144.0,117.0,207.0,2.0,0.0,549.0,370.0,165.0,207.0,0.78,0.53,2022-05-01,0.375,0.576,6.17,0,2,9.2,13.0,-29.23
229.0,Dindigul Oodanchatram,10.4875,77.7542,7.06,2360.0,800.0,104.0,131.0,192.0,7.0,0.0,647.0,213.0,160.0,198.0,1.22,1.44,2022-05-01,0.724,-0.097,6.06,0,2,8.0,20.7,-61.35
230.0,Dindigul P.Alagapuri,10.5983,77.9756,7.14,4990.0,1340.0,176.0,219.0,424.0,55.0,0.0,354.0,1266.0,92.0,100.0,0.92,2.09,2022-05-01,0.542,0.566,21.74,0,2,6.1,10.3,-40.78
231.0,Dindigul Palakanthu,10.4658,77.8056,7.26,1528.0,540.0,48.0,102.0,125.0,2.0,0.0,525.0,178.0,85.0,82.0,0.93,1.02,2022-05-01,0.656,0.347,3.47,1,2,1.3,24.8,-94.76
232.0,Dindigul Palani2,10.4333,77.5125,7.16,805.0,345.0,24.0,69.0,46.0,2.0,0.0,439.0,46.0,17.0,1.0,1.32,0.79,2022-05-01,0.452,0.508,33.55,0,1,4.6,5.5,-16.36
233.0,Dindigul Pallapatti,10.0805,77.5457,7.89,1276.0,380.0,36.0,70.0,139.0,3.0,0.0,415.0,170.0,100.0,28.0,2.72,2.79,2022-05-01,0.504,0.218,26.05,0,2,4.9,17.1,-71.35
234.0,Dindigul Paraipatti,10.3583,77.975,7.15,4220.0,980.0,256.0,83.0,384.0,79.0,0.0,378.0,711.0,370.0,282.0,0.08,1.12,2022-05-01,0.445,0.261,24.1,0,2,9.7,18.2,-46.7
235.0,Dindigul Pittalaipatti,10.3278,77.9333,7.46,1998.0,620.0,48.0,122.0,215.0,12.0,0.0,573.0,327.0,75.0,34.0,1.2,9.75,2022-05-01,0.237,0.242,23.37,0,1,14.9,18.8,-20.74
236.0,Dindigul Pudu Ettama Nayakar Patti,10.4619,77.7061,7.24,1226.0,510.0,64.0,85.0,92.0,4.0,0.0,415.0,100.0,80.0,117.0,1.18,0.82,2022-05-01,0.606,0.367,11.96,0,2,9.5,7.4,28.38
237.0,Dindigul R.Pudukottai,10.3646,78.0303,7.26,1380.0,470.0,64.0,75.0,123.0,12.0,0.0,439.0,178.0,110.0,76.0,1.22,6.06,2022-05-01,0.297,-0.002,28.72,0,2,1.2,23.8,-94.96
238.0,Dindigul R.Vellodu,10.4502,78.0116,7.23,2310.0,600.0,64.0,107.0,237.0,23.0,0.0,427.0,441.0,182.0,16.0,1.07,22.43,2022-05-01,0.117,-0.079,23.19,0,1,19.2,8.6,123.26
239.0,Dindigul Reddiarchattram,10.4167,77.8611,7.27,1206.0,490.0,56.0,85.0,67.0,2.0,0.0,378.0,142.0,48.0,79.0,0.83,2.11,2022-05-01,0.552,0.116,10.69,0,2,18.9,17.5,8.0
240.0,Dindigul Sanarpatti,10.2583,78.1,7.37,1964.0,590.0,52.0,112.0,209.0,9.0,0.0,793.0,235.0,75.0,12.0,1.22,3.31,2022-05-01,0.224,0.393,17.45,0,1,15.7,9.5,65.26
241.0,Dindigul Sanarpatti,10.2745,78.0697,7.47,1833.0,490.0,72.0,75.0,235.0,3.0,0.0,720.0,192.0,75.0,6.0,1.48,1.93,2022-05-01,0.758,0.041,20.75,0,1,19.8,11.1,78.38
242.0,Dindigul Sanarpatti,10.2779,78.0738,7.52,1903.0,520.0,36.0,105.0,205.0,12.0,0.0,598.0,263.0,85.0,25.0,1.25,3.37,2022-05-01,0.768,0.371,20.81,0,1,10.9,15.9,-31.45
243.0,Dindigul Sanarpatti,10.2974,78.0863,7.38,1477.0,360.0,40.0,63.0,158.0,6.0,0.0,622.0,100.0,47.0,2.0,1.14,8.45,2022-05-01,0.74,0.579,22.0,0,1,19.3,13.3,45.11
244.0,Dindigul Sanarpatti,10.3328,78.087,7.33,1840.0,350.0,28.0,68.0,333.0,3.0,0.0,878.0,149.0,70.0,7.0,2.76,2.76,2022-05-01,0.359,-0.034,25.54,0,2,1.5,8.2,-81.71
245.0,Dindigul Servaikaranpatti,10.7472,78.0917,7.4,1249.0,500.0,88.0,68.0,57.0,8.0,0.0,342.0,114.0,188.0,64.0,0.81,3.12,2022-05-01,0.111,0.371,41.99,0,2,7.3,8.4,-13.1
246.0,Dindigul Siddayamkottai,10.2725,77.8356,7.05,5830.0,1980.0,328.0,282.0,366.0,15.0,0.0,390.0,1458.0,500.0,31.0,0.55,3.07,2022-05-01,0.75,0.211,18.8,0,2,4.5,13.4,-66.42
247.0,Dindigul Siluvathur,10.2037,78.0508,7.32,1219.0,400.0,44.0,70.0,117.0,7.0,0.0,488.0,142.0,62.0,10.0,1.02,5.61,2022-05-01,0.4,0.508,16.64,0,1,3.9,20.1,-80.6
248.0,Dindigul Sundarapuri,10.4597,78.0272,7.59,969.0,375.0,60.0,55.0,66.0,14.0,0.0,451.0,82.0,28.0,13.0,0.75,4.23,2022-05-01,0.777,0.024,24.68,0,0,2.8,23.0,-87.83
249.0,Dindigul Thamaraipadi,10.4053,78.0453,7.4,4020.0,720.0,200.0,54.0,529.0,92.0,0.0,769.0,640.0,370.0,241.0,0.54,3.35,2022-05-01,0.775,0.385,28.24,0,2,12.4,6.7,85.07
250.0,Dindigul Thoppampatti,10.59,77.5269,7.16,1863.0,570.0,92.0,83.0,202.0,21.0,0.0,415.0,270.0,92.0,226.0,1.2,2.51,2022-05-01,0.697,0.487,32.87,0,2,15.6,12.9,20.93
251.0,Dindigul Thumbalapatti,10.5333,77.5208,7.13,1110.0,460.0,64.0,73.0,64.0,6.0,0.0,403.0,85.0,31.0,178.0,1.06,0.75,2022-05-01,0.306,0.561,32.13,0,2,11.6,7.0,65.71
252.0,Dindigul Vadamadurai,10.3583,78.1,7.02,2290.0,780.0,192.0,73.0,198.0,11.0,0.0,476.0,384.0,138.0,87.0,1.0,2.63,2022-05-01,0.37,0.378,23.39,0,2,2.9,5.3,-45.28
253.0,Dindigul Vadamadurai pz,10.263,78.0612,7.07,2420.0,660.0,168.0,58.0,273.0,11.0,0.0,512.0,384.0,142.0,107.0,1.32,7.61,2022-05-01,0.696,0.248,20.28,0,2,16.2,18.2,-10.99
254.0,Dindigul Vaivesapuram,10.3244,78.0419,7.15,2300.0,680.0,168.0,63.0,183.0,21.0,0.0,439.0,313.0,182.0,207.0,0.82,0.04,2022-05-01,0.322,0.332,27.07,0,2,12.7,17.0,-25.29
255.0,Dindigul Vaivesapuram,10.5396,78.071,7.11,1846.0,800.0,172.0,90.0,50.0,12.0,0.0,342.0,384.0,53.0,132.0,0.35,0.0,2022-05-01,0.219,0.508,28.63,0,2,7.8,8.3,-6.02
256.0,Dindigul Vaivesapuram,10.5484,78.072,7.27,2160.0,760.0,144.0,97.0,130.0,17.0,0.0,451.0,356.0,200.0,100.0,1.18,5.75,2022-05-01,0.49,0.299,28.99,0,2,13.5,9.7,39.18
257.0,Dindigul Vaivesapuram,10.5551,78.0742,7.28,1628.0,430.0,128.0,27.0,167.0,7.0,0.0,183.0,164.0,410.0,17.0,1.35,11.64,2022-05-01,0.755,-0.079,29.14,0,1,5.2,5.5,-5.45
258.0,Dindigul Vaivesapuram,10.5555,78.0717,7.09,878.0,205.0,40.0,26.0,93.0,6.0,0.0,262.0,110.0,55.0,1.0,0.8,0.15,2022-05-01,0.587,0.552,29.4,0,0,6.9,21.7,-68.2
259.0,Dindigul Vedasandur new,10.5475,77.9711,7.11,3490.0,900.0,80.0,170.0,353.0,13.0,0.0,439.0,768.0,92.0,2.0,1.3,8.29,2022-05-01,0.499,0.383,18.95,0,2,18.3,24.5,-25.31
260.0,Erode Alampalayam pz,11.6272,77.6061,7.4,2800.0,760.0,36.0,163.0,152.0,25.0,0.0,525.0,305.0,126.0,48.0,0.58,3.64,2022-05-01,0.168,0.374,15.57,0,2,5.8,7.7,-24.68
261.0,Erode Alukuli pz,11.4481,77.3578,7.5,1110.0,140.0,40.0,10.0,190.0,48.0,0.0,159.0,280.0,86.0,49.0,0.5,10.23,2022-05-01,0.531,0.051,19.56,0,2,9.4,9.6,-2.08
262.0,Erode Ammapet2,11.6194,77.7444,7.9,1800.0,500.0,40.0,97.0,167.0,2.0,0.0,604.0,227.0,66.0,62.0,0.97,1.6,2022-05-01,0.793,0.361,26.01,0,2,17.8,22.4,-20.54
263.0,Erode Arakkan kottai(Modur Diversion pirivu),11.4969,77.3431,7.5,2120.0,610.0,74.8,103.0,166.0,17.0,0.0,549.0,241.0,118.0,46.0,0.24,4.93,2022-05-01,0.198,0.176,21.98,0,2,14.2,23.5,-39.57
264.0,Erode Archalur,11.1625,77.7,7.98,762.0,250.0,80.0,12.0,17.0,33.0,0.0,146.0,71.0,88.0,12.0,1.69,0.0,2022-05-01,0.463,0.356,41.71,0,2,1.2,13.4,-91.04
265.0,Erode Ariyappanpalayam pz,11.4756,77.2542,7.7,1912.0,500.0,60.0,85.0,71.0,6.0,0.0,354.0,156.0,153.0,69.0,1.15,6.66,2022-05-01,0.714,-0.025,17.76,0,2,2.9,6.0,-51.67
266.0,Erode Asanur pz,11.6739,77.1289,7.2,2450.0,740.0,56.0,146.0,126.0,18.0,0.0,476.0,284.0,209.0,81.0,0.67,0.12,2022-05-01,0.619,0.36,41.61,0,2,0.2,5.8,-96.55
267.0,Erode Attani,11.5242,77.5167,7.5,1219.0,430.0,60.0,68.0,80.0,11.0,0.0,378.0,121.0,115.0,50.0,0.29,0.89,2022-05-01,0.588,0.6,3.58,1,2,12.6,16.5,-23.64
268.0,Erode Avalpundurai,11.2333,77.7208,8.1,1520.0,380.0,90.0,38.0,64.0,25.0,0.0,299.0,142.0,74.0,16.0,1.02,1.07,2022-05-01,0.592,-0.066,35.98,0,1,9.0,12.9,-30.23
269.0,Erode Bangalapudhur,11.5042,77.4083,7.25,1240.0,410.0,64.0,61.0,77.0,8.0,0.0,427.0,135.0,45.0,33.0,0.41,0.53,2022-05-01,0.352,0.584,14.73,0,1,2.7,5.6,-51.79
270.0,Erode Bhavani1,11.8083,77.5333,7.3,2610.0,590.0,60.0,107.0,140.0,148.0,0.0,476.0,298.0,128.0,46.0,0.74,3.75,2022-05-01,0.306,0.185,33.9,0,2,19.2,16.7,14.97
271.0,Erode Chengapalli,11.225,77.4436,7.5,1604.0,600.0,88.0,92.0,62.0,12.0,0.0,329.0,241.0,60.0,42.0,1.32,1.82,2022-05-01,0.667,0.51,24.67,0,1,10.6,5.2,103.85
272.0,Erode Chennampatti pz,11.7019,77.6736,7.0,1552.0,750.0,120.0,109.0,26.0,0.0,0.0,165.0,199.0,298.0,67.0,0.29,2.32,2022-05-01,0.667,0.448,26.54,0,2,4.8,20.7,-76.81
273.0,Erode Chennimalai2,11.1625,77.5972,8.0,1613.0,330.0,92.0,24.0,160.0,125.0,0.0,427.0,163.0,168.0,52.0,1.43,0.0,2022-05-01,0.707,0.297,36.9,0,2,10.0,11.1,-9.91
274.0,Erode Chittodu,11.3917,77.6778,7.5,1542.0,320.0,48.0,49.0,88.0,67.0,0.0,268.0,170.0,121.0,54.0,0.44,1.6,2022-05-01,0.739,0.417,19.57,0,2,13.6,5.8,134.48
275.0,Erode Dharapuram2,10.7389,77.5292,7.8,2760.0,410.0,108.0,34.0,189.0,87.0,0.0,415.0,298.0,221.0,45.0,0.11,0.0,2022-05-01,0.458,0.515,40.97,0,1,1.5,16.8,-91.07
276.0,Erode E.Vellampalayam pz,11.1697,77.6806,7.6,958.0,240.0,40.0,34.0,107.0,20.0,0.0,354.0,64.0,72.0,33.0,1.77,0.97,2022-05-01,0.451,0.183,40.11,0,2,5.5,13.0,-57.69
277.0,Erode Elmattur,11.1944,77.7792,7.5,1136.0,290.0,48.0,41.0,111.0,56.0,0.0,390.0,85.0,79.0,35.0,1.6,0.67,2022-05-01,0.659,0.129,43.27,0,2,16.1,24.5,-34.29
278.0,Erode Erakalpudur(Sivanmalai),11.0308,77.5347,7.3,7000.0,960.0,40.0,209.0,883.0,4.0,0.0,1031.0,681.0,739.0,47.0,0.93,0.0,2022-05-01,0.555,0.367,27.65,0,2,9.2,15.9,-42.14
279.0,Erode Erode2,11.3333,77.7333,7.5,1381.0,390.0,80.0,46.0,147.0,17.0,0.0,415.0,206.0,93.0,43.0,1.54,2.86,2022-05-01,0.591,0.465,28.46,0,2,10.9,10.5,3.81
280.0,Erode Ganapathipalayam,10.7681,77.6547,7.3,1089.0,420.0,68.0,61.0,41.0,5.0,0.0,256.0,128.0,121.0,37.0,1.21,0.32,2022-05-01,0.657,0.434,34.57,0,1,8.7,19.2,-54.69
281.0,Erode Gandhinagar Thaneerpanthalpalayam,11.6589,77.6847,7.1,1365.0,490.0,124.0,44.0,25.0,18.0,0.0,153.0,177.0,136.0,46.0,0.2,1.34,2022-05-01,0.723,0.458,23.54,0,2,0.9,10.4,-91.35
282.0,Erode Gettichcheriyar,11.3383,77.4133,7.7,2560.0,580.0,48.0,112.0,212.0,186.0,0.0,708.0,284.0,114.0,94.0,0.84,2.83,2022-05-01,0.337,0.205,19.29,0,2,3.3,23.1,-85.71
283.0,Erode Gobichettipalayam1,11.4583,77.4458,7.5,979.0,350.0,76.0,39.0,60.0,7.0,0.0,342.0,71.0,115.0,48.0,0.53,0.33,2022-05-01,0.363,0.472,11.67,0,2,8.9,12.5,-28.8
284.0,Erode Gugalur,11.4889,77.4897,7.4,1172.0,450.0,88.0,56.0,49.0,7.0,0.0,238.0,113.0,169.0,19.0,0.59,1.11,2022-05-01,0.166,-0.016,5.91,0,0,4.2,16.0,-73.75
285.0,Erode Guvuar dw,11.6414,77.6822,7.6,1240.0,610.0,56.0,114.0,42.0,0.0,0.0,366.0,177.0,66.0,78.0,0.34,0.53,2022-05-01,0.505,0.281,21.95,0,2,1.0,6.0,-83.33
286.0,Erode Indiampalayam,11.45,77.2694,7.0,880.0,340.0,48.0,53.0,78.0,16.0,0.0,366.0,99.0,58.0,66.0,0.13,0.82,2022-05-01,0.125,-0.096,15.19,0,2,16.9,13.5,25.19
287.0,Erode Ingur New,11.2258,77.5814,7.3,5860.0,970.0,128.0,158.0,316.0,42.0,0.0,183.0,1035.0,213.0,63.0,0.62,4.8,2022-05-01,0.426,0.127,31.09,0,2,19.6,21.6,-9.26
288.0,Erode Kambaliyampatti pz,11.2314,77.5253,7.5,1636.0,550.0,124.0,58.0,148.0,10.0,0.0,293.0,404.0,69.0,48.0,1.35,2.6,2022-05-01,0.48,0.157,30.19,0,2,15.9,21.1,-24.64
289.0,Erode Kambanaickenpalayam pz,11.5297,77.2953,7.6,1561.0,360.0,40.0,63.0,155.0,48.0,0.0,598.0,149.0,13.0,7.0,0.75,1.3,2022-05-01,0.301,0.177,24.46,0,1,17.1,9.5,80.0
290.0,Erode Kangayam2,11.0028,77.5625,7.3,2060.0,640.0,152.0,63.0,134.0,21.0,0.0,415.0,312.0,211.0,37.0,1.08,0.0,2022-05-01,0.514,0.387,31.05,0,1,4.8,9.5,-49.47
291.0,Erode Karaiyur1,10.7639,77.5944,7.8,8560.0,1510.0,304.0,182.0,446.0,33.0,0.0,683.0,943.0,810.0,61.0,1.56,3.35,2022-05-01,0.121,0.172,37.94,0,2,19.2,21.3,-9.86
292.0,Erode Kasipalayam (E),11.4556,77.3394,7.3,647.0,310.0,40.0,51.0,18.0,5.0,0.0,342.0,35.0,5.0,12.0,0.6,0.16,2022-05-01,0.126,0.214,18.94,0,0,3.9,23.6,-83.47
293.0,Erode Kathampalayam pz,11.4256,77.2411,7.7,1201.0,300.0,28.0,56.0,165.0,12.0,0.0,500.0,57.0,103.0,23.0,1.05,1.39,2022-05-01,0.676,0.066,12.14,0,1,19.0,6.9,175.36
294.0,Erode Kattupalayam pz,11.5453,77.5953,7.4,1090.0,480.0,52.0,85.0,42.0,5.0,0.0,177.0,106.0,189.0,62.0,0.42,1.37,2022-05-01,0.352,0.161,7.64,0,2,19.9,14.0,42.14
295.0,Erode Kavilipalayam,11.3802,77.2308,7.3,10700.0,2350.0,244.0,423.0,980.0,16.0,0.0,488.0,2871.0,184.0,76.0,1.73,37.8,2022-05-01,0.189,0.059,7.19,0,2,14.2,11.7,21.37
296.0,Erode Kavundappadi,11.4333,77.5583,7.5,1086.0,440.0,48.0,78.0,75.0,52.0,0.0,378.0,121.0,136.0,71.0,0.68,7.54,2022-05-01,0.466,-0.049,7.97,0,2,19.6,22.4,-12.5
297.0,Erode Kodumudi pz,11.0819,77.8853,7.0,1345.0,570.0,60.0,102.0,61.0,3.0,0.0,305.0,170.0,162.0,13.0,0.58,3.74,2022-05-01,0.639,0.322,60.37,0,0,11.4,6.7,70.15
298.0,Erode Kolappalur,12.5583,79.35,7.5,1475.0,600.0,64.0,107.0,112.0,33.0,0.0,366.0,277.0,238.0,45.0,1.17,2.97,2022-05-01,0.251,0.368,41.74,0,1,5.2,9.2,-43.48
299.0,Erode Kolathupalayam,10.7639,77.5842,7.4,2620.0,480.0,108.0,51.0,244.0,17.0,0.0,415.0,213.0,261.0,36.0,0.14,2.0,2022-05-01,0.536,0.334,38.66,0,1,8.7,20.0,-56.5
300.0,Erode Kosanam pz,11.3711,77.3578,7.8,851.0,200.0,36.0,27.0,97.0,23.0,0.0,220.0,177.0,12.0,40.0,1.56,2.4,2022-05-01,0.16,0.224,14.33,0,2,11.9,6.0,98.33
301.0,Erode Krishnapuram,11.5367,77.7097,7.4,1295.0,460.0,72.0,68.0,45.0,3.0,0.0,238.0,113.0,174.0,81.0,0.58,2.35,2022-05-01,0.136,0.166,19.09,0,2,1.5,14.9,-89.93
302.0,Erode Kullakalpalayam,10.8044,77.5569,7.7,1690.0,760.0,32.0,165.0,126.0,8.0,0.0,220.0,510.0,54.0,38.0,1.3,0.0,2022-05-01,0.472,0.504,40.25,0,1,12.4,13.8,-10.14
303.0,Erode Kunnathur,11.2692,77.4106,7.5,1471.0,415.0,60.0,64.0,59.0,80.0,0.0,342.0,142.0,94.0,38.0,0.42,3.36,2022-05-01,0.478,0.263,19.54,0,1,19.6,11.7,67.52
304.0,Erode Kurichi,11.5733,77.6939,8.0,545.0,250.0,32.0,41.0,13.0,8.0,0.0,140.0,64.0,10.0,62.0,0.73,0.53,2022-05-01,0.546,0.235,18.68,0,2,3.8,12.9,-70.54
305.0,Erode Molengkuttipalayam,11.0672,77.7022,7.7,3970.0,410.0,60.0,63.0,332.0,13.0,0.0,153.0,592.0,224.0,42.0,0.81,0.99,2022-05-01,0.608,-0.082,46.26,0,2,15.9,15.6,1.92
306.0,Erode Mulanur2,10.7917,77.7083,7.5,2400.0,630.0,168.0,51.0,185.0,14.0,0.0,317.0,298.0,242.0,48.0,1.2,1.63,2022-05-01,0.783,0.139,34.53,0,2,18.2,8.2,121.95
307.0,Erode Murlipudur,11.6781,77.656,7.6,4270.0,1300.0,152.0,224.0,150.0,2.0,0.0,390.0,496.0,682.0,67.0,0.79,7.85,2022-05-01,0.461,0.166,23.26,0,2,18.9,16.4,15.24
308.0,Erode Murukkandurai (Bhavanisagar),11.4833,77.15,7.4,705.0,210.0,32.0,32.0,60.0,5.0,0.0,275.0,35.0,74.0,17.0,0.6,0.48,2022-05-01,0.326,0.179,21.12,0,0,19.2,21.1,-9.0
309.0,Erode Muttur1,11.0417,77.7333,7.8,6400.0,1340.0,168.0,224.0,412.0,74.0,0.0,647.0,851.0,720.0,28.0,0.36,1.12,2022-05-01,0.657,0.306,49.65,0,2,10.4,20.2,-48.51
310.0,Erode Nagalapuram pz,11.0756,77.3628,7.5,2210.0,690.0,68.0,126.0,145.0,25.0,0.0,293.0,347.0,188.0,22.0,1.63,3.0,2022-05-01,0.29,0.274,9.16,0,2,19.5,8.1,140.74
311.0,Erode Nallampatti pz,11.3333,77.5417,7.4,826.0,330.0,72.0,36.0,24.0,5.0,0.0,311.0,43.0,65.0,40.0,0.74,9.16,2022-05-01,0.407,0.326,18.83,0,1,15.1,8.0,88.75
312.0,Erode Nambiyur,11.3606,77.3208,7.6,3390.0,720.0,68.0,134.0,333.0,21.0,0.0,464.0,404.0,333.0,52.0,1.88,45.7,2022-05-01,0.155,0.435,10.14,0,2,3.2,10.4,-69.23
313.0,Erode Nilangelvalasu pz,10.6431,77.7342,7.7,1300.0,550.0,60.0,97.0,35.0,4.0,0.0,415.0,99.0,114.0,17.0,1.62,1.2,2022-05-01,0.118,0.469,18.17,0,2,9.5,12.2,-22.13
314.0,Erode Ooricheri,11.465,77.6058,7.4,3530.0,1000.0,56.0,209.0,171.0,4.0,0.0,622.0,496.0,249.0,52.0,0.93,8.81,2022-05-01,0.774,0.403,8.33,0,2,14.4,13.2,9.09
315.0,Erode Otti Vilangadu,11.2242,77.4186,7.4,1960.0,700.0,64.0,131.0,78.0,7.0,0.0,427.0,113.0,254.0,66.0,1.83,4.55,2022-05-01,0.685,0.569,22.21,0,2,4.9,18.6,-73.66
316.0,Erode Padiyur pz,11.0639,77.4922,7.2,950.0,280.0,96.0,10.0,15.0,19.0,0.0,128.0,110.0,77.0,38.0,1.37,0.16,2022-05-01,0.587,-0.087,22.98,0,1,12.8,6.1,109.84
317.0,Erode Pandiyampalayam pz,11.3983,77.5175,7.1,2230.0,610.0,124.0,73.0,150.0,21.0,0.0,451.0,298.0,201.0,62.0,0.28,40.3,2022-05-01,0.386,0.037,11.91,0,2,13.3,5.7,133.33
318.0,Erode Papayampudur,10.6567,77.4678,7.6,2900.0,980.0,64.0,199.0,120.0,7.0,0.0,378.0,397.0,282.0,31.0,1.65,0.75,2022-05-01,0.221,-0.095,41.72,0,2,3.3,12.8,-74.22
319.0,Erode Pattaidurai,10.7011,77.7394,7.4,4500.0,1170.0,176.0,177.0,233.0,16.0,0.0,232.0,915.0,288.0,19.0,0.74,4.29,2022-05-01,0.21,0.353,23.9,0,2,11.3,18.9,-40.21
320.0,Erode Periyakolanalli pz,11.1744,77.8567,7.6,960.0,340.0,52.0,51.0,83.0,41.0,0.0,390.0,128.0,68.0,13.0,0.75,0.31,2022-05-01,0.275,0.529,50.58,0,0,15.4,8.9,73.03
321.0,Erode Periyapuliyur pz,11.4283,77.6492,7.9,2860.0,150.0,16.0,27.0,457.0,170.0,0.0,1122.0,199.0,177.0,62.0,1.27,23.16,2022-05-01,0.484,0.07,14.59,0,2,10.0,17.8,-43.82
322.0,Erode Perundurai1,11.2792,77.5847,7.5,2470.0,550.0,92.0,78.0,223.0,23.0,0.0,476.0,241.0,200.0,72.0,0.27,3.15,2022-05-01,0.6,0.549,25.31,0,2,0.2,10.2,-98.04
323.0,Erode Ponmudi,11.2608,77.5303,7.7,1988.0,540.0,48.0,102.0,238.0,50.0,0.0,317.0,411.0,182.0,25.0,1.0,13.0,2022-05-01,0.562,-0.058,26.91,0,1,0.2,22.7,-99.12
324.0,Erode Ponnapuram pz,10.6981,77.3906,7.7,1067.0,370.0,132.0,10.0,77.0,5.0,0.0,342.0,64.0,177.0,14.0,1.31,0.0,2022-05-01,0.296,0.554,40.26,0,1,7.1,22.9,-69.0
325.0,Erode Pudupalayam1,11.5944,77.5875,7.1,3840.0,1340.0,44.0,299.0,171.0,1.0,0.0,549.0,468.0,560.0,72.0,0.68,9.59,2022-05-01,0.768,0.146,11.39,0,2,18.5,10.9,69.72
326.0,Erode Puduppai pz,10.9586,77.7225,7.7,5790.0,1140.0,88.0,224.0,146.0,132.0,0.0,671.0,383.0,586.0,12.0,1.82,0.44,2022-05-01,0.617,-0.029,49.4,0,2,4.6,9.6,-52.08
327.0,Erode Puduvadavalli,11.5417,77.1761,7.3,1603.0,570.0,74.0,94.0,87.0,5.0,0.0,427.0,149.0,167.0,62.0,1.33,0.92,2022-05-01,0.488,0.24,26.05,0,2,12.7,13.2,-3.79
328.0,Erode Punjai Puliyampatti,11.3528,77.1694,7.48,1261.0,310.0,76.0,29.0,128.0,23.0,0.0,366.0,106.0,105.0,41.0,0.11,0.3,2022-05-01,0.528,0.08,8.92,0,1,4.4,9.8,-55.1
329.0,Erode Punjaiduraiampalayam,11.5131,77.4233,7.1,2300.0,500.0,112.0,53.0,191.0,10.0,0.0,458.0,248.0,223.0,55.0,0.34,3.71,2022-05-01,0.394,0.099,13.11,0,2,6.4,18.4,-65.22
330.0,Erode Punnachipudur dw,11.5919,77.6661,7.2,2830.0,940.0,92.0,173.0,167.0,2.0,0.0,317.0,468.0,375.0,82.0,0.63,13.0,2022-05-01,0.273,0.115,17.04,0,2,17.0,21.5,-20.93
331.0,Erode Punnam pz,11.5072,77.6139,7.3,1465.0,650.0,52.0,126.0,47.0,4.0,0.0,354.0,184.0,213.0,71.0,0.47,1.5,2022-05-01,0.349,0.462,8.1,0,2,14.6,18.5,-21.08
332.0,Erode Rajan Nagar pz,11.5289,77.1422,7.4,2240.0,530.0,48.0,100.0,182.0,4.0,0.0,512.0,227.0,184.0,60.0,0.28,1.63,2022-05-01,0.63,0.277,26.03,0,2,1.9,21.5,-91.16
333.0,Erode Sathiyamangalam,11.5028,77.2472,7.6,1619.0,430.0,56.0,70.0,170.0,10.0,0.0,476.0,170.0,177.0,70.0,1.08,3.59,2022-05-01,0.11,0.118,20.73,0,2,8.6,12.9,-33.33
334.0,Erode Settunampalayam pz,11.52,77.6033,7.3,2800.0,1010.0,44.0,219.0,107.0,22.0,0.0,268.0,588.0,253.0,67.0,0.81,31.0,2022-05-01,0.181,0.327,7.17,0,2,0.6,8.1,-92.59
335.0,Erode Unjalur,11.125,77.875,7.6,931.0,300.0,52.0,41.0,131.0,54.0,0.0,415.0,106.0,122.0,2.0,0.95,0.34,2022-05-01,0.132,0.401,55.99,0,0,9.6,19.8,-51.52
336.0,Erode Urachikottai,11.4847,77.6917,7.4,1867.0,690.0,108.0,102.0,122.0,23.0,0.0,427.0,255.0,205.0,80.0,0.12,4.5,2022-05-01,0.129,0.091,16.85,0,2,13.2,12.2,8.2
337.0,Erode Uthukuli pz,11.1744,77.4472,7.5,1484.0,460.0,52.0,80.0,126.0,26.0,0.0,586.0,170.0,62.0,32.0,1.36,0.68,2022-05-01,0.699,0.189,22.91,0,1,2.4,18.4,-86.96
338.0,Erode Varadanallur,11.4933,77.6986,7.0,884.0,370.0,44.0,63.0,30.0,2.0,0.0,268.0,57.0,68.0,62.0,0.87,0.77,2022-05-01,0.593,-0.015,17.52,0,2,5.8,10.4,-44.23
339.0,Erode Vellakoil,10.9444,77.7153,7.6,4600.0,1120.0,68.0,231.0,103.0,16.0,0.0,433.0,418.0,491.0,44.0,0.56,1.42,2022-05-01,0.432,0.027,48.95,0,2,8.0,6.6,21.21
340.0,Erode Vellitirupur,11.6208,77.6333,7.7,2200.0,640.0,60.0,119.0,82.0,24.0,0.0,598.0,142.0,159.0,56.0,0.78,2.85,2022-05-01,0.168,0.377,16.61,0,2,18.4,24.9,-26.1
341.0,Erode Velliyampalayamputhur pz,11.4886,77.1564,7.6,1467.0,280.0,44.0,41.0,112.0,12.0,0.0,317.0,92.0,136.0,14.0,0.79,0.38,2022-05-01,0.444,0.027,21.32,0,0,19.9,8.1,145.68
342.0,Erode Vijayamangalam pz,11.2444,77.5028,7.7,4044.0,600.0,56.0,112.0,163.0,252.0,0.0,244.0,652.0,12.0,34.0,1.44,2.13,2022-05-01,0.431,0.268,29.01,0,2,0.9,24.8,-96.37
343.0,Erode Vinnampalli,11.4328,77.2022,7.3,1443.0,300.0,32.0,53.0,146.0,17.0,0.0,244.0,149.0,139.0,53.0,0.15,0.79,2022-05-01,0.221,0.396,13.64,0,2,15.2,24.5,-37.96
344.0,Kancheepuram Acharapakkam1,12.4,79.8167,7.09,846.0,380.0,88.0,39.0,4.0,13.0,0.0,346.0,99.0,14.0,1.0,0.42,0.32,2022-05-01,0.404,-0.025,21.79,0,0,7.4,20.9,-64.59
345.0,Kancheepuram Agaram2,12.8875,80.1486,7.3,940.0,340.0,96.0,24.0,24.0,12.0,0.0,220.0,149.0,10.0,39.0,0.69,0.37,2022-05-01,0.379,0.297,26.87,0,1,7.8,18.2,-57.14
346.0,Kancheepuram Anakkaputhur,12.9833,80.125,7.28,1210.0,210.0,76.0,5.0,188.0,1.0,0.0,311.0,178.0,42.0,109.0,0.65,0.92,2022-05-01,0.531,0.08,23.61,0,2,15.1,16.6,-9.04
347.0,Kancheepuram Arasanimangalam,12.5689,79.7233,7.2,1110.0,310.0,32.0,56.0,135.0,10.0,0.0,323.0,192.0,18.0,49.0,0.89,1.07,2022-05-01,0.545,0.574,24.94,0,2,18.4,22.3,-17.49
348.0,Kancheepuram Athur1,12.3478,79.8892,7.37,1237.0,590.0,44.0,117.0,50.0,4.0,0.0,244.0,234.0,124.0,16.0,1.32,2.21,2022-05-01,0.132,0.238,23.01,0,1,19.0,10.8,75.93
349.0,Kancheepuram Baluchettychatram,10.4633,77.79,6.83,1473.0,550.0,100.0,73.0,119.0,16.0,0.0,214.0,270.0,198.0,6.0,0.6,9.42,2022-05-01,0.362,0.464,4.24,1,0,11.5,14.4,-20.14
350.0,Kancheepuram Blue beach road.,12.9539,80.2547,7.41,1426.0,400.0,112.0,29.0,90.0,45.0,0.0,201.0,192.0,160.0,59.0,0.23,2.94,2022-05-01,0.538,0.285,37.72,0,2,7.1,17.4,-59.2
351.0,Kancheepuram Chemmamcheri Periurban,12.8633,80.2261,7.29,810.0,440.0,40.0,83.0,12.0,10.0,0.0,159.0,178.0,56.0,74.0,0.48,0.32,2022-05-01,0.452,-0.07,35.88,0,2,15.8,13.2,19.7
352.0,Kancheepuram Chenglepet1,12.7,79.975,7.22,847.0,280.0,80.0,19.0,85.0,20.0,0.0,305.0,142.0,28.0,3.0,0.96,0.38,2022-05-01,0.7,0.343,17.28,0,0,5.0,13.5,-62.96
353.0,Kancheepuram Chinna Nilangarai,12.9575,80.2608,7.05,1694.0,480.0,116.0,46.0,129.0,47.0,0.0,262.0,213.0,210.0,51.0,0.44,5.19,2022-05-01,0.561,0.566,38.41,0,2,11.3,11.6,-2.59
354.0,Kancheepuram Chitlapakkam,12.9406,80.1375,7.38,585.0,230.0,36.0,34.0,11.0,14.0,0.0,171.0,57.0,60.0,3.0,0.45,0.59,2022-05-01,0.214,0.321,24.74,0,0,7.2,16.3,-55.83
355.0,Kancheepuram Chrompet,12.9514,80.1392,7.5,1728.0,490.0,32.0,100.0,173.0,16.0,0.0,671.0,231.0,57.0,5.0,0.22,1.11,2022-05-01,0.149,0.473,24.9,0,1,13.1,22.0,-40.45
356.0,Kancheepuram Chunambedu,12.2669,79.9844,7.19,1223.0,405.0,32.0,79.0,81.0,12.0,0.0,207.0,284.0,16.0,5.0,0.8,0.91,2022-05-01,0.55,0.519,16.94,0,0,4.8,9.0,-46.67
357.0,Kancheepuram Elegant Flat,12.9875,80.2639,7.3,1094.0,170.0,48.0,12.0,209.0,22.0,0.0,79.0,355.0,95.0,7.0,0.32,0.84,2022-05-01,0.119,0.06,38.96,0,0,3.8,23.7,-83.97
358.0,Kancheepuram Gerugambakkam,13.0153,80.1367,7.39,1412.0,350.0,30.0,67.0,159.0,30.0,0.0,458.0,153.0,143.0,17.0,0.46,4.94,2022-05-01,0.51,0.048,25.65,0,0,18.4,18.8,-2.13
359.0,Kancheepuram Guduvancheri,12.8417,80.0667,7.23,1159.0,440.0,88.0,54.0,12.0,28.0,0.0,305.0,163.0,21.0,44.0,0.8,0.17,2022-05-01,0.758,0.328,20.73,0,1,2.0,21.5,-90.7
360.0,Kancheepuram Hasthinapuram,12.9431,80.1478,7.46,1616.0,355.0,40.0,62.0,102.0,16.0,0.0,415.0,131.0,74.0,7.0,0.23,0.08,2022-05-01,0.503,0.188,25.87,0,1,10.1,16.1,-37.27
361.0,Kancheepuram Injambakkam,12.9339,80.2547,7.48,930.0,330.0,84.0,29.0,38.0,15.0,0.0,189.0,157.0,45.0,14.0,0.57,1.18,2022-05-01,0.372,0.488,37.77,0,0,4.4,20.6,-78.64
362.0,Kancheepuram Kalakshetra,10.4633,80.2636,7.35,1127.0,300.0,88.0,19.0,110.0,16.0,0.0,165.0,192.0,156.0,2.0,0.18,1.94,2022-05-01,0.55,0.53,39.38,0,0,0.8,5.3,-84.91
363.0,Kancheepuram Kancheepuram,12.8333,79.7083,7.44,1257.0,160.0,48.0,10.0,158.0,74.0,0.0,488.0,135.0,38.0,4.0,0.86,0.4,2022-05-01,0.421,0.147,16.03,0,0,0.7,21.4,-96.73
364.0,Kancheepuram Kattangulathur,12.8139,80.0333,7.26,775.0,170.0,44.0,15.0,106.0,13.0,0.0,293.0,85.0,8.0,27.0,0.69,0.28,2022-05-01,0.482,0.066,20.06,0,1,3.5,5.8,-39.66
365.0,Kancheepuram Kattur 12 34 14 80 0 59 7.57 450 210 20 39 4 4 0 140 43 41 2,0.89,0.31,,,,,,,,,,,,,,,2022-05-01,0.759,0.446,8460.45,0,0,17.3,22.8,-24.12
366.0,"Kancheepuram KCG Garden, Vettuvankani",12.9433,80.2569,7.66,1312.0,320.0,72.0,34.0,162.0,22.0,0.0,267.0,198.0,146.0,3.0,0.56,1.11,2022-05-01,0.37,0.092,37.97,0,0,5.6,24.8,-77.42
367.0,Kancheepuram Kilkattalai,12.9622,80.1842,7.13,1624.0,375.0,22.0,77.0,163.0,13.0,0.0,329.0,249.0,96.0,31.0,0.31,1.78,2022-05-01,0.773,0.476,29.93,0,1,19.0,10.9,74.31
368.0,Kancheepuram Kolapakkam,12.8686,80.1103,7.07,1504.0,360.0,80.0,39.0,178.0,13.0,0.0,500.0,206.0,47.0,36.0,0.97,1.95,2022-05-01,0.734,0.197,23.52,0,1,11.6,9.2,26.09
369.0,Kancheepuram Kolathanallur,12.3472,79.9083,7.27,1380.0,380.0,56.0,58.0,144.0,13.0,0.0,427.0,227.0,17.0,6.0,0.53,3.28,2022-05-01,0.237,0.367,22.58,0,0,8.7,20.3,-57.14
370.0,Kancheepuram KOTTIVAKKAM,12.9681,80.26,7.36,1587.0,400.0,60.0,61.0,166.0,32.0,0.0,244.0,259.0,122.0,120.0,0.27,5.79,2022-05-01,0.149,-0.033,38.36,0,2,11.6,10.1,14.85
371.0,Kancheepuram Kundathur periurban,13.0019,80.0694,7.6,1200.0,320.0,34.0,57.0,133.0,20.0,0.0,366.0,163.0,87.0,2.0,0.11,6.45,2022-05-01,0.171,0.337,18.08,0,0,10.3,22.3,-53.81
372.0,Kancheepuram Kunnattur,13.0027,80.0992,7.51,1210.0,510.0,44.0,97.0,6.0,0.0,0.0,238.0,213.0,19.0,5.0,0.81,5.0,2022-05-01,0.113,0.216,21.27,0,0,15.2,7.1,114.08
373.0,Kancheepuram Lions Club,12.9272,80.2639,7.45,545.0,250.0,52.0,34.0,28.0,30.0,0.0,128.0,142.0,18.0,46.0,0.27,4.96,2022-05-01,0.166,0.311,38.83,0,2,5.6,7.5,-25.33
374.0,Kancheepuram Maduranthakam,12.5083,79.8917,7.25,1225.0,380.0,96.0,34.0,127.0,12.0,0.0,500.0,156.0,12.0,27.0,0.91,4.29,2022-05-01,0.578,0.018,7.48,0,1,7.1,24.6,-71.14
375.0,Kancheepuram Mahabalipuram,12.625,80.1917,7.39,265.0,130.0,32.0,12.0,2.0,2.0,0.0,132.0,24.0,4.0,6.0,0.81,0.34,2022-05-01,0.15,0.416,28.52,0,0,17.9,18.5,-3.24
376.0,Kancheepuram Mangadu,13.0247,80.1089,7.28,1320.0,390.0,88.0,41.0,145.0,20.0,0.0,311.0,181.0,103.0,55.0,0.25,1.76,2022-05-01,0.323,0.504,23.06,0,2,18.9,21.9,-13.7
377.0,Kancheepuram Mannivakkam,12.8916,80.0694,7.35,690.0,225.0,28.0,38.0,52.0,12.0,0.0,177.0,71.0,68.0,13.0,0.76,0.66,2022-05-01,0.691,0.052,18.36,0,0,17.9,11.5,55.65
378.0,Kancheepuram Meenambakkam1,12.9722,80.1736,7.26,1148.0,405.0,58.0,63.0,65.0,14.0,0.0,311.0,110.0,150.0,4.0,0.35,1.06,2022-05-01,0.116,-0.033,28.82,0,0,8.4,18.5,-54.59
379.0,Kancheepuram Mudichur,12.8919,80.0689,7.22,820.0,260.0,64.0,24.0,72.0,23.0,0.0,232.0,110.0,74.0,17.0,0.45,0.66,2022-05-01,0.67,-0.083,18.29,0,0,15.6,16.9,-7.69
380.0,Kancheepuram Muttukadu,12.8219,80.2406,6.4,1755.0,380.0,80.0,44.0,216.0,20.0,0.0,268.0,426.0,48.0,3.0,0.89,2.34,2022-05-01,0.297,0.349,38.87,0,1,9.5,17.1,-44.44
381.0,Kancheepuram Nagalkeni,12.9575,80.1261,7.45,1580.0,275.0,18.0,56.0,182.0,22.0,0.0,482.0,199.0,23.0,3.0,0.6,1.29,2022-05-01,0.183,0.325,23.46,0,1,10.0,18.7,-46.52
382.0,Kancheepuram Nandambakkam,13.0042,80.1875,7.24,710.0,310.0,64.0,36.0,32.0,9.0,0.0,171.0,142.0,12.0,12.0,0.76,0.27,2022-05-01,0.588,0.283,30.85,0,0,4.1,16.5,-75.15
383.0,Kancheepuram Nedunkundram,12.8847,80.1136,7.54,1030.0,440.0,24.0,92.0,58.0,10.0,0.0,207.0,178.0,110.0,24.0,0.81,0.78,2022-05-01,0.54,0.062,23.24,0,1,11.8,13.6,-13.24
384.0,Kancheepuram Neelangarai,12.9542,80.2556,7.29,1639.0,400.0,84.0,46.0,117.0,25.0,0.0,195.0,192.0,232.0,17.0,0.73,2.54,2022-05-01,0.714,0.174,37.82,0,1,3.7,10.5,-64.76
385.0,Kancheepuram Paddapai,12.9125,80.0125,7.44,1596.0,243.0,10.0,106.0,88.0,8.0,0.0,201.0,220.0,210.0,21.0,0.92,2.61,2022-05-01,0.615,0.316,11.63,0,1,6.6,20.4,-67.65
386.0,Kancheepuram PALKALAI NAGAR,12.9633,80.2617,7.55,1602.0,385.0,50.0,63.0,148.0,37.0,0.0,476.0,213.0,15.0,39.0,0.4,6.12,2022-05-01,0.662,0.248,38.53,0,1,17.1,9.5,80.0
387.0,Kancheepuram Pallavaram,12.9728,80.1544,7.04,2270.0,570.0,90.0,84.0,205.0,14.0,0.0,384.0,380.0,248.0,7.0,0.52,5.78,2022-05-01,0.297,0.591,26.7,0,1,4.1,18.8,-78.19
388.0,Kancheepuram Pallikaranai,12.9264,80.1978,7.8,1417.0,100.0,32.0,5.0,273.0,12.0,0.0,79.0,469.0,22.0,1.0,0.76,0.79,2022-05-01,0.224,-0.004,31.52,0,0,1.4,9.7,-85.57
389.0,Kancheepuram Panruti Kandigai,12.8506,79.9119,7.41,558.0,140.0,44.0,7.0,73.0,6.0,0.0,165.0,107.0,10.0,7.0,0.7,0.83,2022-05-01,0.625,0.387,11.09,0,0,1.4,17.5,-92.0
390.0,Kancheepuram Perungulathur,12.9167,80.1083,7.61,2370.0,500.0,48.0,92.0,264.0,17.0,0.0,427.0,433.0,92.0,20.0,0.6,1.7,2022-05-01,0.665,0.183,21.8,0,1,18.8,19.9,-5.53
391.0,Kancheepuram Podavur (Melpodavur),12.9237,79.7455,7.78,575.0,180.0,28.0,27.0,59.0,11.0,0.0,226.0,36.0,55.0,14.0,0.7,0.14,2022-05-01,0.793,0.2,19.03,0,0,10.1,9.4,7.45
392.0,Kancheepuram Ponmar,12.8556,80.1694,7.32,1030.0,430.0,44.0,78.0,56.0,5.0,0.0,207.0,178.0,98.0,25.0,0.73,0.33,2022-05-01,0.389,0.402,30.15,0,1,8.2,6.2,32.26
393.0,Kancheepuram Poonamallee,13.0567,80.0819,7.27,1510.0,375.0,42.0,66.0,188.0,21.0,0.0,384.0,209.0,146.0,10.0,0.45,4.25,2022-05-01,0.36,0.385,21.97,0,1,16.2,7.6,113.16
394.0,Kancheepuram Porur dw,13.0225,80.1533,7.31,980.0,350.0,28.0,68.0,56.0,14.0,0.0,195.0,199.0,36.0,22.0,0.73,0.6,2022-05-01,0.643,0.594,27.65,0,1,16.7,17.1,-2.34
395.0,Kancheepuram Putheri EW,12.8395,79.6787,7.63,1102.0,80.0,24.0,5.0,210.0,3.0,0.0,214.0,178.0,76.0,6.0,0.84,2.56,2022-05-01,0.339,-0.01,12.73,0,0,6.6,22.0,-70.0
396.0,Kancheepuram Rettamangalam,12.6333,79.8333,7.31,790.0,330.0,28.0,63.0,28.0,14.0,0.0,177.0,121.0,46.0,16.0,1.11,2.21,2022-05-01,0.752,-0.027,15.84,0,1,13.9,5.9,135.59
397.0,Kancheepuram Sadras,12.5203,80.1517,7.45,1107.0,255.0,26.0,46.0,123.0,17.0,0.0,250.0,178.0,18.0,59.0,0.73,4.05,2022-05-01,0.701,0.407,22.92,0,2,15.4,19.7,-21.83
398.0,"Kancheepuram Seashore Appartment, 39",12.9828,80.2656,7.38,1389.0,190.0,36.0,24.0,227.0,24.0,0.0,67.0,398.0,42.0,20.0,0.34,0.49,2022-05-01,0.4,0.305,39.1,0,0,13.1,11.8,11.02
399.0,"Kancheepuram Seashore Appartment, 40",12.9786,80.2656,7.22,1543.0,190.0,76.0,0.0,247.0,21.0,0.0,73.0,419.0,92.0,20.0,0.22,1.01,2022-05-01,0.626,0.092,39.06,0,1,3.0,14.6,-79.45
400.0,Kancheepuram Sholinganallur Periurban,12.9,80.2333,7.05,2970.0,360.0,80.0,39.0,425.0,72.0,0.0,195.0,639.0,210.0,11.0,0.53,0.22,2022-05-01,0.628,-0.044,35.79,0,1,17.5,23.6,-25.85
401.0,Kancheepuram Sriperumbudur,12.9667,79.95,7.21,276.0,150.0,20.0,24.0,11.0,4.0,0.0,61.0,71.0,8.0,8.0,0.76,0.14,2022-05-01,0.172,-0.04,4.3,1,0,10.8,11.6,-6.9
402.0,Kancheepuram St.Thomas Mount dw,13.0072,80.1978,7.2,1895.0,460.0,48.0,83.0,167.0,14.0,0.0,433.0,231.0,150.0,55.0,0.12,1.88,2022-05-01,0.732,0.526,32.03,0,2,5.6,14.3,-60.84
403.0,Kancheepuram Tambaram1,12.9333,80.1333,7.39,830.0,360.0,48.0,58.0,48.0,1.0,0.0,195.0,156.0,23.0,47.0,0.72,0.14,2022-05-01,0.454,0.034,24.32,0,2,8.5,5.3,60.38
404.0,Kancheepuram Thirumukkudal,12.7375,79.8417,7.34,785.0,250.0,48.0,32.0,75.0,19.0,0.0,185.0,142.0,55.0,3.0,0.89,1.6,2022-05-01,0.679,0.126,24.17,0,0,0.8,6.6,-87.88
405.0,Kancheepuram Thiruporur,12.8083,80.1875,7.37,590.0,250.0,32.0,41.0,20.0,14.0,0.0,195.0,78.0,25.0,3.0,0.78,0.65,2022-05-01,0.324,0.059,34.13,0,0,2.6,10.2,-74.51
406.0,Kancheepuram Thiruverkadu,13.0669,80.1367,7.4,1270.0,340.0,112.0,15.0,126.0,13.0,0.0,281.0,149.0,210.0,7.0,0.64,1.03,2022-05-01,0.727,0.148,27.81,0,0,15.3,5.6,173.21
407.0,Kancheepuram Tirukalukundram,12.6083,79.6667,7.29,810.0,340.0,44.0,56.0,44.0,20.0,0.0,201.0,135.0,32.0,51.0,0.73,0.17,2022-05-01,0.372,-0.051,31.84,0,2,0.0,17.6,-100.0
408.0,Kancheepuram Tirumani,12.6658,79.993,7.53,890.0,430.0,28.0,88.0,25.0,4.0,0.0,256.0,114.0,77.0,3.0,1.12,0.84,2022-05-01,0.108,0.263,14.16,0,1,8.3,13.5,-38.52
409.0,Kancheepuram Uthandi,12.8694,80.2472,7.46,370.0,100.0,34.0,4.0,30.0,16.0,0.0,127.0,32.0,44.0,5.0,0.03,0.57,2022-05-01,0.734,-0.053,37.97,0,0,10.5,16.0,-34.38
410.0,Kancheepuram Uthiramerur2,12.6083,79.7375,6.85,6080.0,1920.0,432.0,204.0,480.0,13.0,0.0,464.0,1839.0,128.0,29.0,0.8,6.95,2022-05-01,0.164,0.46,24.22,0,2,1.1,8.5,-87.06
411.0,Kancheepuram Uthukkadu pz,12.8292,79.83,7.46,780.0,320.0,64.0,39.0,41.0,10.0,0.0,329.0,85.0,12.0,2.0,0.84,8.44,2022-05-01,0.324,0.064,16.43,0,0,19.5,10.9,78.9
412.0,Kancheepuram Uttiramerur,12.6333,79.7607,7.49,685.0,310.0,8.0,71.0,20.0,10.0,0.0,183.0,95.0,42.0,17.0,1.0,0.17,2022-05-01,0.765,0.278,22.79,0,0,4.5,18.3,-75.41
413.0,Kancheepuram Vadakkupattu pz,12.8181,79.9367,7.69,1210.0,90.0,24.0,7.0,224.0,2.0,0.0,275.0,199.0,48.0,2.0,0.87,0.24,2022-05-01,0.765,0.516,14.89,0,0,6.1,24.3,-74.9
414.0,Kancheepuram Vadekkal Ow (Palnallur),12.9035,79.9139,7.52,1410.0,230.0,44.0,29.0,205.0,21.0,0.0,281.0,341.0,18.0,11.0,0.87,19.19,2022-05-01,0.501,0.356,5.21,0,0,6.1,6.0,1.67
415.0,Kancheepuram Vengaivasal,12.9003,80.1711,7.06,1604.0,520.0,96.0,68.0,123.0,13.0,0.0,500.0,270.0,38.0,5.0,0.86,1.88,2022-05-01,0.542,0.273,28.98,0,1,4.6,22.8,-79.82
416.0,Kancheepuram Vishranthi Old Age Home,12.9786,80.2606,7.12,1558.0,420.0,104.0,39.0,186.0,25.0,0.0,165.0,305.0,240.0,23.0,0.72,2.73,2022-05-01,0.414,0.127,38.5,0,1,0.0,16.5,-100.0
417.0,Kancheepuram Walajabad,12.775,79.825,7.22,1490.0,520.0,64.0,88.0,87.0,12.0,0.0,281.0,362.0,27.0,14.0,1.34,2.48,2022-05-01,0.305,0.133,21.88,0,1,14.6,16.3,-10.43
418.0,Kancheepuram VAYAULUR,12.5014,80.0816,6.99,840.0,280.0,44.0,41.0,78.0,14.0,0.0,220.0,199.0,18.45,0.0,0.7,0.47,2022-05-01,0.33,0.369,15.78,0,0,19.3,15.0,28.67
419.0,Kancheepuram INJAMBAKKAM,12.9263,80.2506,7.4,1434.0,330.0,96.0,22.0,158.0,21.0,0.0,342.0,242.0,16.25,6.0,0.61,4.58,2022-05-01,0.571,0.596,37.36,0,0,4.5,6.4,-29.69
420.0,Kancheepuram NEMMILI,12.7206,80.2279,7.44,598.0,210.0,40.0,27.0,44.0,8.0,0.0,122.0,125.0,16.15,13.0,0.63,0.36,2022-05-01,0.627,0.363,36.67,0,0,13.3,6.8,95.59
421.0,Kancheepuram PANAIYUR,12.9879,80.2678,7.36,1520.0,230.0,20.0,44.0,200.0,16.0,0.0,122.0,426.0,34.05,1.0,0.34,0.56,2022-05-01,0.654,0.29,39.4,0,1,14.8,17.0,-12.94
422.0,Kancheepuram UTHANDI,12.8955,80.244,7.3,760.0,290.0,60.0,34.0,40.0,12.0,0.0,183.0,125.0,43.0,8.0,0.56,0.54,2022-05-01,0.653,0.411,37.04,0,0,17.0,11.8,44.07
423.0,Kanyakumari Aralvaimozhi,8.25,77.5167,7.4,532.0,175.0,44.0,16.0,29.0,13.0,0.0,104.0,71.0,43.0,12.0,0.59,0.33,2022-05-01,0.164,0.226,69.06,0,0,8.5,23.3,-63.52
424.0,Kanyakumari Attur,8.325,77.2583,6.9,170.0,90.0,16.0,12.0,2.0,3.0,0.0,18.0,50.0,7.0,3.0,0.67,2.12,2022-05-01,0.446,-0.058,47.16,0,0,6.1,13.1,-53.44
425.0,Kanyakumari Boothapandy,8.2583,77.4528,7.3,1843.0,600.0,68.0,105.0,190.0,0.0,0.0,525.0,277.0,118.0,2.0,1.17,3.34,2022-05-01,0.14,0.294,65.38,0,1,6.5,7.9,-17.72
426.0,Kanyakumari Chenpagaramanpudur,8.2599,77.5099,7.0,665.0,235.0,36.0,35.0,39.0,0.0,0.0,305.0,28.0,23.0,2.0,1.82,0.16,2022-05-01,0.485,0.57,68.22,0,2,14.3,19.3,-25.91
427.0,Kanyakumari Chettiarmadam DW,8.1917,77.2953,6.9,180.0,110.0,12.0,19.0,15.0,4.0,0.0,61.0,50.0,10.0,11.0,0.86,0.16,2022-05-01,0.409,0.023,46.92,0,0,16.3,10.9,49.54
428.0,Kanyakumari Kanyakumari PZ,8.0889,77.55,7.4,1354.0,320.0,60.0,41.0,117.0,15.0,0.0,342.0,206.0,50.0,39.0,0.16,1.15,2022-05-01,0.721,0.383,66.1,0,1,3.6,15.5,-76.77
429.0,Kanyakumari Kanyakumari1,8.0833,77.55,7.5,1089.0,340.0,64.0,44.0,104.0,34.0,0.0,464.0,121.0,70.0,18.0,0.6,1.18,2022-05-01,0.346,0.041,66.19,0,0,7.4,19.0,-61.05
430.0,Kanyakumari Karungal pz,8.2347,77.2347,6.9,1241.0,250.0,32.0,41.0,166.0,28.0,0.0,61.0,305.0,65.0,54.0,0.14,0.16,2022-05-01,0.182,0.275,41.2,0,2,18.0,23.0,-21.74
431.0,Kanyakumari Kattudurai DW,8.2839,77.2719,6.9,755.0,130.0,24.0,17.0,104.0,17.0,0.0,49.0,177.0,32.0,46.0,0.32,0.0,2022-05-01,0.2,-0.032,46.78,0,2,16.1,20.8,-22.6
432.0,Kanyakumari Kolachal,8.1778,77.2625,6.85,475.0,200.0,24.0,34.0,35.0,0.0,0.0,37.0,99.0,65.0,26.0,1.08,0.14,2022-05-01,0.633,0.215,43.13,0,1,19.7,18.5,6.49
433.0,Kanyakumari Kulasekharan DW,8.3522,77.2858,7.0,555.0,210.0,24.0,36.0,31.0,13.0,0.0,85.0,99.0,65.0,8.0,0.15,0.15,2022-05-01,0.533,0.429,51.25,0,0,15.1,18.6,-18.82
434.0,Kanyakumari Kundal(West) PZ,8.1028,77.5439,7.4,1205.0,230.0,44.0,29.0,177.0,0.0,0.0,281.0,206.0,54.0,6.0,0.69,0.0,2022-05-01,0.171,0.143,66.58,0,0,7.9,23.9,-66.95
435.0,Kanyakumari Marthandam,8.3097,77.2142,6.9,250.0,120.0,20.0,17.0,12.0,0.0,0.0,37.0,43.0,29.0,26.0,0.92,0.0,2022-05-01,0.159,0.365,42.02,0,1,11.8,10.9,8.26
436.0,Kanyakumari Marthandam pz,8.3097,77.2142,6.9,381.0,100.0,16.0,15.0,26.0,12.0,0.0,12.0,99.0,6.0,13.0,0.34,0.0,2022-05-01,0.591,0.457,42.02,0,0,13.2,5.0,164.0
437.0,Kanyakumari Nagarkoil1,8.1667,77.45,7.1,1050.0,300.0,68.0,32.0,119.0,11.0,0.0,268.0,156.0,76.0,43.0,0.16,0.48,2022-05-01,0.151,0.549,63.8,0,1,1.6,10.4,-84.62
438.0,Kanyakumari Puthukadai,8.2793,77.1824,6.85,640.0,200.0,20.0,36.0,41.0,21.0,0.0,73.0,128.0,57.0,39.0,0.24,0.0,2022-05-01,0.675,0.064,37.38,0,1,10.9,9.4,15.96
439.0,Kanyakumari Thakkalai1,8.2486,77.3083,6.9,921.0,300.0,36.0,51.0,44.0,6.0,0.0,85.0,206.0,18.0,32.0,0.43,0.0,2022-05-01,0.594,0.18,49.5,0,1,14.2,18.2,-21.98
440.0,Kanyakumari Thiruvattar,8.3333,77.2678,7.0,231.0,120.0,16.0,19.0,11.0,3.0,0.0,24.0,43.0,29.0,51.0,0.6,0.17,2022-05-01,0.157,0.007,48.52,0,2,3.3,17.7,-81.36
441.0,Kanyakumari Variyur,8.1167,77.5425,7.5,1228.0,280.0,32.0,49.0,180.0,4.0,0.0,549.0,113.0,98.0,5.0,0.57,2.8,2022-05-01,0.159,0.595,66.58,0,0,15.6,16.9,-7.69
442.0,Kanyakumari Vellaivilai,8.2222,77.2583,6.96,660.0,180.0,12.0,36.0,69.0,0.0,0.0,24.0,149.0,57.0,41.0,0.58,0.11,2022-05-01,0.791,0.549,43.43,0,1,11.7,5.3,120.75
443.0,Kanyakumari Villukuri,8.225,77.3583,7.1,456.0,155.0,20.0,26.0,33.0,5.0,0.0,122.0,71.0,19.0,13.0,0.1,0.0,2022-05-01,0.362,0.278,54.38,0,0,19.0,19.6,-3.06
444.0,Karaikal Karaikal dw,10.9322,79.8314,7.72,1518.0,270.0,68.0,24.0,213.0,57.0,0.0,384.0,249.0,56.0,115.0,0.86,0.64,2022-05-01,0.359,0.489,79.02,0,2,0.8,11.5,-93.04
445.0,Karaikal Kilakasakudi,10.9333,79.8417,7.68,1825.0,340.0,76.0,36.0,221.0,52.0,0.0,336.0,376.0,83.0,46.0,0.55,1.21,2022-05-01,0.669,0.265,80.03,0,2,5.3,18.3,-71.04
446.0,Karaikal Kottucherry,10.9583,79.8167,7.63,504.0,200.0,40.0,24.0,36.0,9.0,0.0,92.0,50.0,88.0,58.0,0.71,0.13,2022-05-01,0.763,0.337,79.43,0,2,12.0,16.1,-25.47
447.0,Karaikal Thirunallur,10.9261,79.7922,7.81,1925.0,230.0,24.0,41.0,370.0,7.0,0.0,403.0,369.0,66.0,47.0,0.66,1.78,2022-05-01,0.79,-0.038,75.1,0,2,5.9,11.9,-50.42
448.0,Karur Allur -Agragaram dw,10.8661,78.5472,7.1,1322.0,270.0,48.0,36.0,120.0,96.0,0.0,360.0,185.0,79.0,28.0,0.11,0.59,2022-05-01,0.627,0.429,16.79,0,1,14.3,7.7,85.71
449.0,Karur Aravakurichi2,10.775,77.925,7.26,1205.0,370.0,68.0,49.0,115.0,5.0,0.0,390.0,192.0,28.0,19.0,0.16,1.85,2022-05-01,0.363,-0.011,33.48,0,0,15.2,6.9,120.29
450.0,Karur Ayyampalayam pz,11.0625,78.0361,7.26,4660.0,900.0,184.0,107.0,583.0,28.0,0.0,580.0,966.0,389.0,13.0,0.48,10.47,2022-05-01,0.158,0.478,67.68,0,2,2.1,21.6,-90.28
451.0,Karur Chinna Dharapuram,10.8667,77.9,7.24,1644.0,500.0,84.0,71.0,138.0,34.0,0.0,464.0,256.0,78.0,21.0,0.79,3.39,2022-05-01,0.644,0.447,42.29,0,1,10.3,23.4,-55.98
452.0,Karur Choladasanpatti pz,10.85,78.0,7.45,1166.0,430.0,76.0,58.0,97.0,8.0,0.0,342.0,121.0,198.0,17.0,0.17,6.15,2022-05-01,0.491,0.396,44.6,0,0,10.2,18.0,-43.33
453.0,Karur Echampatti pz,10.8589,78.4228,7.43,1896.0,340.0,40.0,58.0,269.0,5.0,0.0,439.0,369.0,55.0,4.0,1.39,4.4,2022-05-01,0.397,-0.075,28.39,0,1,7.4,7.1,4.23
454.0,Karur Enuguru DW,10.8547,78.4878,7.14,9070.0,1740.0,108.0,358.0,1252.0,12.0,0.0,1001.0,2386.0,229.0,20.0,0.87,10.7,2022-05-01,0.734,0.112,22.54,0,2,18.7,13.0,43.85
455.0,Karur Jagatabi,10.8417,78.1667,7.22,2740.0,620.0,124.0,75.0,312.0,6.0,0.0,525.0,462.0,165.0,116.0,1.56,8.71,2022-05-01,0.178,0.084,48.86,0,2,16.6,19.6,-15.31
456.0,Karur Kovilur,10.7603,77.8289,7.26,4040.0,1000.0,136.0,161.0,457.0,18.0,0.0,598.0,781.0,363.0,50.0,0.65,10.51,2022-05-01,0.445,0.152,29.32,0,2,13.9,20.6,-32.52
457.0,Karur Mayanur,10.9417,78.2417,7.0,1977.0,520.0,104.0,63.0,178.0,16.0,0.0,348.0,462.0,16.0,5.0,0.12,3.77,2022-05-01,0.108,-0.039,45.42,0,1,14.3,7.4,93.24
458.0,Karur Melnagavaram dw,10.8767,78.2219,7.05,2840.0,660.0,112.0,92.0,332.0,5.0,0.0,580.0,540.0,154.0,81.0,0.61,8.4,2022-05-01,0.428,0.556,48.75,0,2,9.2,5.0,84.0
459.0,Karur Paramatti1,10.9667,77.9125,7.36,1742.0,300.0,56.0,39.0,267.0,7.0,0.0,476.0,185.0,202.0,3.0,1.12,1.17,2022-05-01,0.139,0.288,53.41,0,1,18.4,19.2,-4.17
460.0,Karur Thogamalai,10.7292,78.425,7.17,3160.0,530.0,136.0,46.0,414.0,69.0,0.0,543.0,589.0,232.0,1.0,0.27,13.5,2022-05-01,0.183,0.114,36.74,0,2,13.9,12.1,14.88
461.0,Karur Veerapalayam dw,10.7789,78.1975,8.5,740.0,210.0,40.0,27.0,70.0,11.0,0.0,165.0,135.0,11.0,52.0,0.66,0.59,2022-05-01,0.182,0.178,41.19,0,2,14.6,10.1,44.55
462.0,Karur Vellianani,10.8667,78.1333,7.32,4080.0,790.0,96.0,134.0,427.0,130.0,0.0,647.0,682.0,284.0,205.0,1.58,6.58,2022-05-01,0.554,0.213,52.7,0,2,17.2,5.3,224.53
463.0,Krishnagiri Anusonai,12.5667,77.9,7.78,1157.0,410.0,64.0,61.0,69.0,64.0,0.0,342.0,149.0,130.0,12.0,0.51,5.33,2022-05-01,0.622,0.32,17.94,0,0,5.5,15.8,-65.19
464.0,Krishnagiri Anusonai,12.5667,77.9,7.78,1157.0,410.0,64.0,61.0,69.0,64.0,0.0,342.0,149.0,130.0,12.0,0.51,5.33,2022-05-01,0.508,0.261,17.94,0,0,16.1,22.0,-26.82
465.0,Krishnagiri Athimugam1,12.7583,77.9792,7.52,1336.0,410.0,100.0,39.0,122.0,5.0,0.0,207.0,149.0,314.0,38.0,1.15,76.28,2022-05-01,0.774,0.544,32.83,0,1,3.9,24.2,-83.88
466.0,Krishnagiri Athimugam1,12.7583,77.9792,7.52,1336.0,410.0,100.0,39.0,122.0,5.0,0.0,207.0,149.0,314.0,38.0,1.15,76.28,2022-05-01,0.362,0.248,32.83,0,1,6.9,16.3,-57.67
467.0,Krishnagiri Bargur,12.3242,78.2054,7.81,2260.0,690.0,60.0,131.0,202.0,9.0,0.0,567.0,305.0,238.0,100.0,1.28,5.53,2022-05-01,0.3,0.595,59.28,0,2,6.7,15.3,-56.21
468.0,Krishnagiri Billakottai Pz,12.4072,78.1658,7.6,1834.0,600.0,52.0,114.0,150.0,1.0,0.0,415.0,270.0,218.0,39.0,0.71,1.18,2022-05-01,0.708,0.496,51.28,0,1,19.6,6.7,192.54
469.0,Krishnagiri Billakottai Pz,12.4072,78.1658,7.6,1834.0,600.0,52.0,114.0,150.0,1.0,0.0,415.0,270.0,218.0,39.0,0.71,1.18,2022-05-01,0.257,0.046,51.28,0,1,17.1,16.0,6.88
470.0,Krishnagiri Billanakuppam,12.0626,78.1853,7.43,1090.0,400.0,52.0,66.0,81.0,11.0,0.0,390.0,121.0,120.0,16.0,1.28,32.37,2022-05-01,0.774,0.551,60.46,0,1,14.0,12.6,11.11
471.0,Krishnagiri Denkanikottai1,12.525,77.7833,7.36,2830.0,760.0,140.0,100.0,243.0,9.0,0.0,336.0,462.0,417.0,64.0,0.78,6.71,2022-05-01,0.109,-0.019,8.26,0,2,14.5,17.1,-15.2
472.0,Krishnagiri Denkanikottai1,12.525,77.7833,7.36,2830.0,760.0,140.0,100.0,243.0,9.0,0.0,336.0,462.0,417.0,64.0,0.78,6.71,2022-05-01,0.779,0.472,8.26,0,2,11.2,12.8,-12.5
473.0,Krishnagiri Enusonai,12.6138,78.0175,7.25,1290.0,440.0,80.0,58.0,77.0,11.0,0.0,275.0,149.0,128.0,114.0,1.84,3.21,2022-05-01,0.13,0.166,31.03,0,2,18.9,9.8,92.86
474.0,Krishnagiri Guruparapalli,12.5974,78.1331,7.7,598.0,290.0,60.0,34.0,5.0,4.0,0.0,159.0,85.0,43.0,2.0,0.3,2.43,2022-05-01,0.724,0.515,43.72,0,0,9.9,6.9,43.48
475.0,Krishnagiri Guruvinayanpalli,12.65,78.3292,7.54,1012.0,410.0,68.0,58.0,73.0,7.0,0.0,287.0,114.0,191.0,20.0,0.69,40.86,2022-05-01,0.469,0.508,65.86,0,0,7.6,11.3,-32.74
476.0,Krishnagiri Guruvinayanpalli,12.65,78.3292,7.54,1012.0,410.0,68.0,58.0,73.0,7.0,0.0,287.0,114.0,191.0,20.0,0.69,40.86,2022-05-01,0.795,0.464,65.86,0,0,3.3,6.9,-52.17
477.0,Krishnagiri Hosur HP,12.7167,77.8333,7.68,1240.0,500.0,120.0,49.0,77.0,5.0,0.0,329.0,185.0,138.0,44.0,0.74,13.64,2022-05-01,0.152,0.453,17.95,0,1,15.7,8.5,84.71
478.0,Krishnagiri Hosur HP,12.7167,77.8333,7.68,1240.0,500.0,120.0,49.0,77.0,5.0,0.0,329.0,185.0,138.0,44.0,0.74,13.64,2022-05-01,0.488,0.113,17.95,0,1,14.7,24.7,-40.49
479.0,Krishnagiri Karukkanchavadi,12.4083,78.2083,7.45,1320.0,490.0,80.0,71.0,110.0,2.0,0.0,342.0,256.0,88.0,18.0,0.72,1.89,2022-05-01,0.779,-0.043,55.62,0,0,7.7,13.9,-44.6
480.0,Krishnagiri Karukkanchavadi,12.4083,78.2083,7.45,1320.0,490.0,80.0,71.0,110.0,2.0,0.0,342.0,256.0,88.0,18.0,0.72,1.89,2022-05-01,0.466,0.182,55.62,0,0,0.5,15.6,-96.79
481.0,Krishnagiri Kaveripatnam,12.4125,78.2292,7.49,1682.0,650.0,40.0,134.0,100.0,3.0,0.0,329.0,362.0,91.0,8.0,0.64,1.48,2022-05-01,0.541,0.021,57.64,0,1,16.8,22.5,-25.33
482.0,Krishnagiri Kaveripatnam,12.4125,78.2292,7.49,1682.0,650.0,40.0,134.0,100.0,3.0,0.0,329.0,362.0,91.0,8.0,0.64,1.48,2022-05-01,0.587,0.386,57.64,0,1,0.2,24.9,-99.2
483.0,Krishnagiri Kawthalam,12.5347,78.0489,7.22,569.0,270.0,48.0,36.0,28.0,3.0,0.0,220.0,85.0,45.0,3.0,0.52,1.09,2022-05-01,0.418,0.142,34.8,0,0,14.1,16.7,-15.57
484.0,Krishnagiri Kawthalam,12.5347,78.0489,7.22,569.0,270.0,48.0,36.0,28.0,3.0,0.0,220.0,85.0,45.0,3.0,0.52,1.09,2022-05-01,0.539,0.583,34.8,0,0,19.4,21.2,-8.49
485.0,Krishnagiri Keezhkuppam Pz,12.2228,78.5283,7.84,1785.0,650.0,80.0,109.0,138.0,7.0,0.0,592.0,241.0,100.0,3.0,1.36,0.49,2022-05-01,0.509,0.349,56.12,0,1,8.8,11.5,-23.48
486.0,Krishnagiri Keezhkuppam Pz,12.2228,78.5283,7.84,1785.0,650.0,80.0,109.0,138.0,7.0,0.0,592.0,241.0,100.0,3.0,1.36,0.49,2022-05-01,0.731,0.476,56.12,0,1,4.7,11.1,-57.66
487.0,Krishnagiri Konnanur,12.3328,78.3503,7.09,1042.0,390.0,92.0,39.0,75.0,1.0,0.0,293.0,156.0,90.0,20.0,0.55,0.0,2022-05-01,0.132,-0.007,73.36,0,0,14.1,13.1,7.63
488.0,Krishnagiri Konnanur,12.3328,78.3503,7.09,1042.0,390.0,92.0,39.0,75.0,1.0,0.0,293.0,156.0,90.0,20.0,0.55,0.0,2022-05-01,0.297,0.503,73.36,0,0,16.3,18.5,-11.89
490.0,Krishnagiri Krishnagiri,12.313,78.1259,7.41,2700.0,690.0,140.0,83.0,258.0,6.0,0.0,397.0,490.0,263.0,122.0,0.64,3.32,2022-05-01,0.765,0.546,52.46,0,2,10.9,18.6,-41.4
491.0,Krishnagiri Machinayampalli,12.6156,77.7844,7.65,1424.0,470.0,148.0,24.0,82.0,21.0,0.0,275.0,128.0,252.0,86.0,1.38,16.11,2022-05-01,0.723,0.241,6.03,0,2,19.3,11.3,70.8
492.0,Krishnagiri Machinayampalli,12.6156,77.7844,7.65,1424.0,470.0,148.0,24.0,82.0,21.0,0.0,275.0,128.0,252.0,86.0,1.38,16.11,2022-05-01,0.419,0.324,6.03,0,2,1.0,7.7,-87.01
493.0,Krishnagiri Machinkanakottai,12.4131,78.1708,7.1,1230.0,510.0,112.0,56.0,80.0,6.0,0.0,415.0,178.0,80.0,7.0,1.29,6.87,2022-05-01,0.534,0.435,51.55,0,1,10.1,17.6,-42.61
494.0,Krishnagiri Machinkanakottai,12.4131,78.1708,7.1,1230.0,510.0,112.0,56.0,80.0,6.0,0.0,415.0,178.0,80.0,7.0,1.29,6.87,2022-05-01,0.294,0.022,51.55,0,1,14.4,7.6,89.47
495.0,Krishnagiri Mahadeva Gollahalli,12.4025,78.3436,7.52,1208.0,480.0,100.0,56.0,90.0,17.0,0.0,329.0,220.0,69.0,18.0,0.89,1.31,2022-05-01,0.232,0.252,70.06,0,0,17.3,16.6,4.22
496.0,Krishnagiri Mahadeva Gollahalli,12.4025,78.3436,7.52,1208.0,480.0,100.0,56.0,90.0,17.0,0.0,329.0,220.0,69.0,18.0,0.89,1.31,2022-05-01,0.425,0.179,70.06,0,0,3.6,18.9,-80.95
497.0,Krishnagiri Mallapadi,12.5344,78.3752,7.44,1304.0,490.0,88.0,66.0,72.0,8.0,0.0,354.0,206.0,110.0,19.0,0.98,7.77,2022-05-01,0.347,0.002,70.79,0,0,16.0,19.0,-15.79
498.0,Krishnagiri Mattur,12.3833,78.4139,7.84,3860.0,1260.0,236.0,163.0,274.0,22.0,0.0,689.0,646.0,347.0,211.0,0.34,2.1,2022-05-01,0.509,0.157,76.4,0,2,11.1,20.1,-44.78
499.0,Krishnagiri Mattur,12.3833,78.4139,7.84,3860.0,1260.0,236.0,163.0,274.0,22.0,0.0,689.0,646.0,347.0,211.0,0.34,2.1,2022-05-01,0.154,-0.052,76.4,0,2,7.9,22.5,-64.89
500.0,Krishnagiri Mattur2,12.3833,78.4167,7.26,1479.0,520.0,48.0,97.0,140.0,1.0,0.0,458.0,249.0,78.0,12.0,1.17,2.24,2022-05-01,0.782,-0.082,76.31,0,1,2.6,15.0,-82.67
501.0,Krishnagiri Mattur2,12.3833,78.4167,7.26,1479.0,520.0,48.0,97.0,140.0,1.0,0.0,458.0,249.0,78.0,12.0,1.17,2.24,2022-05-01,0.79,-0.005,76.31,0,1,17.3,19.6,-11.73
502.0,Krishnagiri Megalachinnapalli,12.625,78.2542,7.44,1820.0,700.0,100.0,109.0,145.0,3.0,0.0,397.0,291.0,279.0,11.0,0.92,68.13,2022-05-01,0.589,0.574,57.31,0,1,3.1,17.4,-82.18
503.0,Krishnagiri Megalachinnapalli,12.625,78.2542,7.44,1820.0,700.0,100.0,109.0,145.0,3.0,0.0,397.0,291.0,279.0,11.0,0.92,68.13,2022-05-01,0.475,0.285,57.31,0,1,6.2,8.7,-28.74
504.0,Krishnagiri Nagathunai,12.5639,77.9128,7.8,792.0,310.0,64.0,36.0,59.0,1.0,0.0,244.0,114.0,68.0,18.0,1.21,0.0,2022-05-01,0.317,0.576,19.39,0,1,5.8,5.5,5.45
505.0,Krishnagiri Nagathunai,12.5639,77.9128,7.8,792.0,310.0,64.0,36.0,59.0,1.0,0.0,244.0,114.0,68.0,18.0,1.21,0.0,2022-05-01,0.67,0.203,19.39,0,1,17.4,10.7,62.62
506.0,Krishnagiri Nattamaikottai,12.4721,78.2154,7.45,1337.0,410.0,48.0,71.0,153.0,2.0,0.0,342.0,284.0,66.0,17.0,1.69,6.15,2022-05-01,0.579,0.118,54.3,0,2,13.5,13.9,-2.88
507.0,Krishnagiri Pannandur,12.3013,78.2794,7.23,3270.0,900.0,236.0,75.0,282.0,5.0,0.0,177.0,1001.0,82.0,28.0,0.5,8.52,2022-05-01,0.214,0.254,67.71,0,2,15.9,17.3,-8.09
508.0,Krishnagiri Panneswara Madam,12.3917,78.2469,7.14,3630.0,1000.0,140.0,158.0,259.0,57.0,0.0,531.0,675.0,215.0,170.0,1.29,0.42,2022-05-01,0.738,0.208,60.28,0,2,5.0,22.0,-77.27
509.0,Krishnagiri Panneswara Madam,12.3917,78.2469,7.14,3630.0,1000.0,140.0,158.0,259.0,57.0,0.0,531.0,675.0,215.0,170.0,1.29,0.42,2022-05-01,0.676,-0.026,60.28,0,2,12.5,8.9,40.45
510.0,Krishnagiri Pudur Punganai,12.1864,78.4842,7.13,2120.0,680.0,128.0,88.0,139.0,23.0,0.0,488.0,320.0,116.0,121.0,1.48,1.21,2022-05-01,0.765,0.349,53.24,0,2,11.4,7.5,52.0
511.0,Krishnagiri Rayakottai,12.5111,78.5111,7.7,1620.0,580.0,120.0,68.0,98.0,52.0,0.0,525.0,256.0,77.0,24.0,0.73,0.0,2022-05-01,0.608,0.051,86.05,0,1,16.7,24.3,-31.28
512.0,Krishnagiri Sulagiri,12.6667,78.025,7.5,2600.0,790.0,160.0,95.0,197.0,3.0,0.0,500.0,348.0,213.0,206.0,1.02,0.28,2022-05-01,0.529,0.334,32.97,0,2,18.1,7.2,151.39
513.0,Krishnagiri Tattarhalli,12.3408,78.2458,7.25,696.0,280.0,60.0,32.0,27.0,4.0,0.0,195.0,85.0,55.0,11.0,0.61,2.0,2022-05-01,0.393,0.355,62.41,0,0,0.2,14.6,-98.63
514.0,Krishnagiri Udhanapalli,12.6103,77.9395,7.74,1305.0,350.0,52.0,54.0,117.0,2.0,0.0,342.0,170.0,80.0,33.0,0.61,3.38,2022-05-01,0.753,0.006,22.38,0,1,13.5,16.7,-19.16
515.0,Krishnagiri Unichetty,12.437,77.8505,7.9,683.0,340.0,48.0,54.0,2.0,3.0,0.0,311.0,71.0,2.0,4.0,0.63,1.34,2022-05-01,0.706,-0.057,20.55,0,0,1.0,15.8,-93.67
516.0,Krishnagiri Uttangarai,12.2667,78.5292,7.47,1123.0,560.0,80.0,88.0,48.0,5.0,0.0,323.0,149.0,78.0,85.0,1.15,0.09,2022-05-01,0.132,0.447,60.92,0,2,11.0,6.7,64.18
517.0,Krishnagiri Vanambli,12.3475,78.555,7.82,1744.0,510.0,68.0,83.0,135.0,3.0,0.0,311.0,348.0,109.0,8.0,1.42,1.35,2022-05-01,0.118,0.222,69.48,0,1,5.8,6.1,-4.92
518.0,Krishnagiri Vappanapalli,12.6998,78.1925,7.69,1854.0,450.0,68.0,68.0,247.0,8.0,0.0,451.0,263.0,227.0,51.0,1.7,48.88,2022-05-01,0.364,-0.059,51.88,0,2,6.1,7.1,-14.08
519.0,Krishnagiri Virupakshinagar,12.5933,77.8681,6.76,918.0,350.0,60.0,49.0,59.0,2.0,0.0,98.0,185.0,105.0,84.0,0.62,0.0,2022-05-01,0.667,0.596,14.31,0,2,7.1,16.7,-57.49
520.0,Madurai Alanganallur,10.05,78.0967,7.41,1287.0,460.0,36.0,90.0,99.0,13.0,0.0,366.0,178.0,52.0,112.0,0.94,3.2,2022-05-01,0.791,-0.06,11.71,0,2,12.4,15.9,-22.01
521.0,Madurai Andarkottaram pz,9.9086,78.1858,7.51,1497.0,420.0,92.0,46.0,141.0,5.0,0.0,317.0,299.0,78.0,27.0,0.42,0.79,2022-05-01,0.205,0.387,23.43,0,1,6.7,9.7,-30.93
522.0,Madurai Avalsuranpatti pz,9.6414,77.9744,7.74,1097.0,310.0,84.0,24.0,109.0,11.0,0.0,451.0,121.0,43.0,11.0,1.01,1.59,2022-05-01,0.516,0.589,26.86,0,1,14.7,17.8,-17.42
523.0,Madurai Chekkanoorani pz,9.9414,77.9681,7.64,2340.0,460.0,72.0,68.0,312.0,4.0,0.0,403.0,455.0,88.0,114.0,0.6,1.15,2022-05-01,0.367,0.067,7.84,0,2,8.1,21.4,-62.15
524.0,Madurai Chellampatti,9.5638,77.5346,7.67,1090.0,360.0,32.0,68.0,95.0,4.0,0.0,549.0,71.0,60.0,22.0,2.6,2.94,2022-05-01,0.779,-0.0,16.71,0,2,1.4,5.8,-75.86
525.0,Madurai Keelakottai pz,9.7867,78.0019,7.68,4200.0,1040.0,120.0,180.0,384.0,80.0,0.0,573.0,811.0,260.0,276.0,1.45,4.52,2022-05-01,0.689,-0.015,24.26,0,2,15.7,15.0,4.67
526.0,Madurai Kolluveeranpatti,9.7069,77.8856,7.7,2420.0,820.0,176.0,92.0,177.0,15.0,0.0,488.0,370.0,299.0,51.0,2.52,1.48,2022-05-01,0.687,0.112,35.4,0,2,5.7,18.8,-69.68
527.0,Madurai Kolluveeranpatti pz,9.4225,77.5308,7.65,3210.0,740.0,104.0,117.0,295.0,162.0,0.0,476.0,427.0,277.0,313.0,3.14,3.18,2022-05-01,0.428,-0.029,32.3,0,2,8.7,10.0,-13.0
528.0,Madurai Kottampatti pz,10.2219,78.3772,7.73,1488.0,420.0,32.0,83.0,152.0,8.0,0.0,476.0,213.0,121.0,0.0,0.52,13.59,2022-05-01,0.39,0.385,12.23,0,0,13.7,11.2,22.32
529.0,Madurai Kulamangalam,10.005,78.0652,8.04,529.0,200.0,34.0,28.0,34.0,4.0,0.0,311.0,32.0,6.0,0.0,0.72,1.2,2022-05-01,0.291,-0.056,7.44,0,0,6.6,17.3,-61.85
530.0,Madurai M.K.University,9.9408,78.0006,7.48,1250.0,560.0,76.0,90.0,53.0,4.0,0.0,390.0,128.0,118.0,74.0,0.86,1.61,2022-05-01,0.139,0.257,7.16,0,2,1.1,23.0,-95.22
531.0,Madurai M.Puliyankulam,9.8844,78.1825,7.77,2500.0,340.0,40.0,58.0,390.0,2.0,0.0,659.0,412.0,122.0,16.0,0.61,10.85,2022-05-01,0.705,0.598,24.46,0,1,7.5,21.2,-64.62
532.0,Madurai Madurai New College House,9.9189,78.1119,7.74,1589.0,430.0,36.0,83.0,179.0,6.0,0.0,561.0,156.0,108.0,83.0,1.06,3.22,2022-05-01,0.669,0.47,15.85,0,2,18.9,16.7,13.17
533.0,Madurai Madurai Rly Colony,9.9272,78.1036,7.5,2059.0,590.0,92.0,88.0,225.0,6.0,0.0,671.0,263.0,95.0,109.0,0.79,2.94,2022-05-01,0.8,0.331,14.56,0,2,12.8,19.6,-34.69
534.0,Madurai Melamadai,9.9347,78.1689,6.99,142.0,44.0,11.0,3.9,6.0,7.0,0.0,54.0,13.0,3.0,3.0,0.0,0.17,2022-05-01,0.798,0.114,20.5,0,0,13.4,12.3,8.94
535.0,Madurai Melur1,10.0306,78.3333,7.66,1221.0,390.0,64.0,56.0,92.0,8.0,0.0,329.0,164.0,62.0,58.0,0.25,0.85,2022-05-01,0.489,0.337,16.78,0,2,12.6,17.8,-29.21
536.0,Madurai Meluru new,10.0333,78.3444,7.38,389.0,146.0,38.0,12.0,18.0,3.0,0.0,178.0,32.0,2.0,3.0,0.39,0.0,2022-05-01,0.638,0.269,15.69,0,0,4.0,14.3,-72.03
537.0,Madurai Nallathevanpatti,9.5611,77.4701,7.61,2350.0,860.0,56.0,175.0,169.0,5.0,0.0,476.0,398.0,181.0,27.0,0.68,7.16,2022-05-01,0.761,0.198,19.63,0,1,8.4,8.8,-4.55
538.0,Madurai Narayanapuram,9.5726,78.0759,7.4,1917.0,490.0,80.0,70.0,253.0,9.0,0.0,476.0,277.0,136.0,134.0,1.32,4.05,2022-05-01,0.695,-0.009,18.45,0,2,15.0,19.0,-21.05
539.0,Madurai Nilayur pz,9.5119,78.0332,7.31,1765.0,660.0,116.0,90.0,91.0,6.0,0.0,451.0,327.0,66.0,47.0,1.06,1.24,2022-05-01,0.273,0.521,26.27,0,2,2.0,16.1,-87.58
540.0,Madurai P.Ammapatti pz,9.8458,77.8947,7.64,1022.0,250.0,28.0,44.0,124.0,2.0,0.0,415.0,85.0,77.0,9.0,1.53,2.45,2022-05-01,0.415,0.215,21.1,0,2,5.6,12.2,-54.1
541.0,Madurai Peraiyur pz,9.7428,77.7922,7.47,900.0,320.0,76.0,32.0,47.0,2.0,0.0,238.0,89.0,62.0,55.0,0.26,1.18,2022-05-01,0.19,0.036,25.7,0,2,5.5,23.2,-76.29
542.0,Madurai Saptur pz,9.7628,77.7392,7.24,282.0,96.0,21.0,11.0,18.0,2.0,0.0,110.0,23.0,13.0,0.0,0.18,0.1,2022-05-01,0.768,0.157,20.39,0,0,8.6,5.4,59.26
543.0,Madurai Sedapatti,9.75,77.675,7.33,285.0,92.0,19.0,11.0,18.0,2.0,0.0,107.0,24.0,13.0,0.0,0.0,0.12,2022-05-01,0.524,0.19,13.17,0,0,19.6,11.3,73.45
544.0,Madurai Surakulam pz,9.8364,78.0567,7.58,2250.0,800.0,124.0,119.0,142.0,7.0,0.0,525.0,327.0,117.0,234.0,2.2,0.57,2022-05-01,0.26,0.479,19.84,0,2,1.4,6.1,-77.05
545.0,Madurai T.Kallupatti,9.432,77.5053,7.72,1926.0,380.0,52.0,61.0,261.0,1.0,0.0,586.0,284.0,155.0,3.0,0.56,2.13,2022-05-01,0.57,0.414,31.69,0,1,10.4,20.3,-48.77
546.0,Madurai T.Krishnapuram pz,9.8044,77.6692,7.67,2580.0,580.0,56.0,107.0,247.0,76.0,0.0,598.0,327.0,186.0,24.0,0.9,6.65,2022-05-01,0.533,0.439,15.67,0,1,3.6,19.0,-81.05
547.0,Madurai Thirumangalam new,9.8167,77.9792,7.56,3890.0,1060.0,144.0,170.0,369.0,28.0,0.0,659.0,668.0,379.0,186.0,1.36,3.16,2022-05-01,0.351,-0.092,21.04,0,2,19.4,11.6,67.24
548.0,Madurai Thirupallai,9.9777,78.1432,7.61,1168.0,400.0,48.0,68.0,113.0,8.0,0.0,427.0,156.0,35.0,17.0,0.78,0.75,2022-05-01,0.179,0.191,16.23,0,0,2.3,18.5,-87.57
549.0,Madurai Thirupallai,9.9805,78.1453,7.58,4470.0,1200.0,32.0,272.0,481.0,11.0,0.0,708.0,1081.0,54.0,1.0,0.78,0.0,2022-05-01,0.57,0.237,15.87,0,2,8.1,12.9,-37.21
550.0,Madurai Thirupallai,9.9856,78.1397,7.64,60.0,8.0,1.6,1.0,8.0,2.0,0.0,15.0,7.0,1.0,6.0,0.39,0.0,2022-05-01,0.464,-0.087,15.47,0,0,14.8,20.1,-26.37
551.0,Madurai Thirupallai,9.9869,78.1389,7.65,2380.0,640.0,76.0,109.0,294.0,14.0,0.0,964.0,284.0,71.0,10.0,1.96,0.3,2022-05-01,0.641,0.082,15.35,0,2,14.1,14.1,0.0
552.0,Madurai Thirupallai,9.9872,78.1445,7.84,1383.0,440.0,52.0,75.0,146.0,5.0,0.0,549.0,100.0,70.0,33.0,1.36,1.76,2022-05-01,0.464,0.432,15.17,0,1,8.5,13.2,-35.61
553.0,Madurai Thonthilingapuram pz,10.2597,78.3586,7.67,542.0,190.0,34.0,26.0,40.0,1.0,0.0,226.0,39.0,15.0,37.0,0.64,0.04,2022-05-01,0.697,-0.004,16.79,0,1,6.9,23.7,-70.89
554.0,Madurai Thummakaundu pz,9.8739,77.8681,7.45,1516.0,600.0,56.0,112.0,72.0,6.0,0.0,512.0,228.0,10.0,27.0,0.19,1.89,2022-05-01,0.486,0.275,20.52,0,1,8.0,10.0,-20.0
555.0,Madurai Tirumangalam pz,9.9208,77.8833,7.58,4430.0,1100.0,64.0,229.0,543.0,15.0,0.0,720.0,754.0,401.0,238.0,1.59,7.89,2022-05-01,0.493,0.051,15.83,0,2,5.3,7.4,-28.38
556.0,Madurai Usilampatti new,9.9861,77.8042,7.55,1352.0,410.0,68.0,58.0,123.0,21.0,0.0,634.0,135.0,9.0,5.0,0.32,0.91,2022-05-01,0.714,-0.092,14.4,0,0,4.1,16.7,-75.45
557.0,Madurai Valayankulam,9.8042,78.0917,7.0,3690.0,1220.0,408.0,49.0,222.0,5.0,0.0,244.0,910.0,63.0,213.0,0.73,0.27,2022-05-01,0.382,0.069,20.86,0,2,9.7,24.4,-60.25
558.0,Madurai Valayankulam pz,9.8042,78.0917,7.12,2850.0,1060.0,224.0,122.0,100.0,4.0,0.0,305.0,569.0,43.0,359.0,1.2,0.78,2022-05-01,0.194,0.583,20.86,0,2,5.4,12.6,-57.14
559.0,Madurai Varichiyur pz,9.9125,78.2569,7.34,1712.0,480.0,84.0,66.0,162.0,6.0,0.0,415.0,299.0,84.0,48.0,0.82,3.06,2022-05-01,0.12,0.461,24.78,0,2,5.7,6.2,-8.06
560.0,Madurai Vellalapatti pz,10.0597,78.2708,7.65,1034.0,230.0,28.0,39.0,103.0,12.0,0.0,427.0,53.0,76.0,9.0,1.33,131.98,2022-05-01,0.629,0.572,12.55,0,1,13.1,11.8,11.02
561.0,Madurai Vilangudi,9.9606,78.0731,7.34,458.0,150.0,30.0,18.0,49.0,3.0,0.0,244.0,27.0,6.0,2.0,0.54,1.44,2022-05-01,0.534,0.241,9.68,0,0,19.4,15.1,28.48
562.0,Nagapattinam Akkarapettai,10.7442,79.85,7.58,1330.0,360.0,40.0,63.0,157.0,31.0,0.0,268.0,234.0,94.0,43.0,1.05,0.25,2022-05-01,0.593,-0.023,71.06,0,1,12.1,8.2,47.56
563.0,Nagapattinam Keelvalur,10.7667,79.7333,7.65,1421.0,240.0,56.0,24.0,170.0,95.0,0.0,372.0,220.0,72.0,70.0,0.58,0.0,2022-05-01,0.249,0.284,60.17,0,2,1.5,18.2,-91.76
564.0,Nagapattinam Mayavaram,11.0944,79.6556,7.69,2380.0,500.0,68.0,80.0,342.0,21.0,0.0,567.0,497.0,103.0,2.0,0.52,5.23,2022-05-01,0.195,0.218,77.9,0,1,1.5,25.0,-94.0
565.0,Nagapattinam Nagapattinam,10.7825,79.8431,7.74,1564.0,450.0,100.0,49.0,144.0,60.0,0.0,610.0,156.0,114.0,54.0,0.92,3.41,2022-05-01,0.11,0.491,71.95,0,2,19.0,14.0,35.71
566.0,Nagapattinam Nagore,10.8011,79.8419,7.7,1292.0,360.0,56.0,54.0,149.0,7.0,0.0,519.0,156.0,53.0,38.0,1.13,0.3,2022-05-01,0.345,-0.031,72.68,0,1,5.9,12.1,-51.24
567.0,Nagapattinam Nallur,11.33,79.7753,7.54,762.0,140.0,36.0,12.0,102.0,10.0,0.0,171.0,114.0,62.0,43.0,0.46,0.2,2022-05-01,0.513,0.242,92.43,0,1,1.8,13.0,-86.15
568.0,Nagapattinam Odacherry,10.6833,79.8375,7.62,1332.0,440.0,60.0,71.0,123.0,9.0,0.0,354.0,199.0,71.0,61.0,0.44,1.13,2022-05-01,0.375,0.005,67.67,0,2,12.0,7.3,64.38
569.0,Nagapattinam Poompuhar Melaiyur,11.1469,79.835,7.4,805.0,190.0,60.0,10.0,86.0,18.0,0.0,195.0,135.0,45.0,37.0,0.53,0.0,2022-05-01,0.406,0.127,95.05,0,1,12.5,22.7,-44.93
570.0,Nagapattinam Thalaignayiru,11.2097,79.6639,7.58,2190.0,500.0,40.0,97.0,228.0,11.0,0.0,317.0,454.0,53.0,52.0,0.28,1.29,2022-05-01,0.733,0.416,89.13,0,2,13.0,13.3,-2.26
571.0,Nagapattinam Thamaraipulam,10.4781,79.8292,7.7,1235.0,400.0,68.0,56.0,89.0,70.0,0.0,415.0,142.0,47.0,58.0,0.62,0.98,2022-05-01,0.344,0.233,64.51,0,2,5.3,12.7,-58.27
572.0,Nagapattinam Thethakudi,10.4178,79.8364,7.52,740.0,280.0,68.0,27.0,74.0,2.0,0.0,250.0,114.0,48.0,1.0,0.25,0.08,2022-05-01,0.46,0.163,60.82,0,0,0.3,18.2,-98.35
573.0,Nagapattinam Thirukadaiyur,10.4781,79.8289,7.12,354.0,150.0,32.0,17.0,16.0,8.0,0.0,61.0,43.0,58.0,44.0,0.7,0.03,2022-05-01,0.649,0.176,64.48,0,1,19.3,13.8,39.86
574.0,Nagapattinam Tranquebar,11.0169,79.8514,7.65,1158.0,300.0,80.0,24.0,136.0,23.0,0.0,293.0,163.0,111.0,63.0,1.29,0.62,2022-05-01,0.378,0.222,86.49,0,2,5.0,18.0,-72.22
575.0,Nagapattinam Valagarai,10.6289,79.7483,7.53,3760.0,1020.0,120.0,175.0,394.0,45.0,0.0,635.0,682.0,279.0,58.0,0.23,7.34,2022-05-01,0.535,0.45,56.61,0,2,13.5,6.2,117.74
576.0,Nagapattinam Vedaranyam,10.35,79.8625,7.56,674.0,230.0,60.0,19.0,70.0,13.0,0.0,207.0,107.0,51.0,8.0,0.2,0.05,2022-05-01,0.704,0.524,53.11,0,0,14.1,21.3,-33.8
577.0,Nagapattinam Velanganni,10.6833,79.8375,7.55,972.0,330.0,48.0,51.0,95.0,21.0,0.0,244.0,142.0,87.0,60.0,0.16,0.29,2022-05-01,0.765,0.569,67.67,0,2,12.2,23.8,-48.74
578.0,Namakkal Ainthu Panai,11.3633,77.8089,7.8,834.0,240.0,36.0,36.0,56.0,30.0,0.0,336.0,71.0,58.0,3.0,1.94,0.0,2022-05-01,0.203,0.451,33.53,0,2,6.3,18.0,-65.0
579.0,Namakkal Annai sathyanagar,11.3508,77.7639,7.8,933.0,195.0,44.0,21.0,67.0,11.0,0.0,232.0,92.0,66.0,2.0,1.55,0.0,2022-05-01,0.749,0.121,29.96,0,2,5.4,24.1,-77.59
580.0,Namakkal Chittalandur dw,11.315,77.9242,7.5,2460.0,730.0,160.0,80.0,141.0,106.0,0.0,360.0,340.0,246.0,45.0,0.74,6.17,2022-05-01,0.444,0.382,47.38,0,1,12.0,8.0,50.0
581.0,Namakkal Elachipalayam new,11.3847,78.0125,7.7,2630.0,620.0,40.0,126.0,337.0,0.0,0.0,476.0,525.0,230.0,86.0,1.74,0.0,2022-05-01,0.281,0.206,53.96,0,2,17.3,14.5,19.31
582.0,Namakkal Ezhur -Olapalayam D,11.3658,78.1192,7.3,5430.0,1110.0,104.0,207.0,767.0,8.0,0.0,415.0,1241.0,600.0,66.0,1.68,30.29,2022-05-01,0.421,0.078,65.96,0,2,18.9,17.0,11.18
583.0,Namakkal Gurusamipalayam,11.4342,78.1344,7.5,3250.0,760.0,48.0,156.0,353.0,5.0,0.0,195.0,858.0,145.0,68.0,1.74,4.89,2022-05-01,0.786,0.489,62.03,0,2,2.1,16.6,-87.35
584.0,Namakkal Irumbapalam,11.2042,77.9917,7.7,1182.0,510.0,88.0,70.0,107.0,0.0,0.0,268.0,206.0,150.0,28.0,1.62,4.74,2022-05-01,0.445,-0.073,60.02,0,2,3.1,13.0,-76.15
585.0,Namakkal K.Naickanpatti,11.3333,78.2458,7.1,1233.0,510.0,52.0,92.0,45.0,4.0,0.0,238.0,199.0,70.0,32.0,0.95,0.0,2022-05-01,0.33,0.531,59.46,0,1,18.9,11.8,60.17
586.0,Namakkal Kalinayakkanur,11.2742,78.0825,7.7,1260.0,490.0,20.0,107.0,77.0,1.0,0.0,451.0,177.0,90.0,5.0,0.62,0.0,2022-05-01,0.543,0.223,65.25,0,0,14.7,7.5,96.0
587.0,Namakkal Kalipatti,11.5167,78.0361,7.4,1251.0,410.0,60.0,63.0,40.0,4.0,0.0,110.0,220.0,75.0,49.0,1.41,3.24,2022-05-01,0.268,0.346,54.98,0,2,17.7,12.8,38.28
588.0,Namakkal Kamarajar Nagar,11.4831,78.375,7.5,1062.0,410.0,84.0,49.0,11.0,3.0,0.0,122.0,184.0,51.0,48.0,0.51,1.43,2022-05-01,0.153,0.362,37.53,0,2,4.1,8.3,-50.6
589.0,Namakkal Kattipalayam,11.3156,78.0336,7.6,1392.0,490.0,32.0,100.0,122.0,4.0,0.0,488.0,170.0,105.0,60.0,1.66,0.0,2022-05-01,0.19,0.527,58.5,0,2,11.8,19.7,-40.1
590.0,Namakkal Kokkarayanpettai D,11.3147,77.7947,7.62,2990.0,610.0,80.0,100.0,216.0,30.0,0.0,439.0,440.0,181.0,60.0,0.94,27.4,2022-05-01,0.19,0.346,35.07,0,2,14.0,9.2,52.17
591.0,Namakkal Kumbakkottai,11.4717,78.3044,7.3,1920.0,480.0,36.0,95.0,162.0,3.0,0.0,476.0,248.0,100.0,23.0,1.83,1.16,2022-05-01,0.206,0.33,44.18,0,2,13.6,6.2,119.35
592.0,Namakkal Metala,11.5167,78.3417,7.4,1555.0,700.0,52.0,139.0,12.0,3.0,0.0,360.0,199.0,65.0,51.0,1.16,2.0,2022-05-01,0.197,-0.053,37.83,0,2,8.2,16.0,-48.75
593.0,Namakkal Minnampalli,11.3165,78.1865,7.3,2850.0,1260.0,48.0,277.0,46.0,4.0,0.0,427.0,574.0,141.0,48.0,1.3,4.08,2022-05-01,0.549,0.263,63.66,0,2,0.3,16.9,-98.22
594.0,Namakkal Mohanur1,11.5125,78.1417,7.7,2470.0,580.0,20.0,129.0,293.0,12.0,0.0,586.0,383.0,150.0,54.0,0.83,9.58,2022-05-01,0.227,0.005,57.26,0,2,11.7,22.4,-47.77
595.0,Namakkal Mullakurchi dw,11.4594,78.3969,7.6,2030.0,730.0,88.0,124.0,67.0,1.0,0.0,415.0,234.0,155.0,62.0,0.26,3.5,2022-05-01,0.342,0.416,37.87,0,2,5.1,16.5,-69.09
596.0,Namakkal Nallur1,11.2667,77.8667,7.5,2690.0,880.0,104.0,151.0,163.0,82.0,0.0,305.0,468.0,290.0,52.0,1.01,1.05,2022-05-01,0.728,0.259,44.66,0,2,9.0,11.9,-24.37
597.0,Namakkal Namagiripet,11.4625,78.275,7.0,907.0,290.0,52.0,39.0,84.0,3.0,0.0,366.0,113.0,45.0,8.0,1.47,0.24,2022-05-01,0.432,0.376,47.37,0,1,19.2,21.1,-9.0
